City_ID,City,Country,Lat,Lng,Max Temp,Humidity,Cloudiness,Wind Speed,Current Desc
0,Ingraj Bazar,IN,25.0,88.15,83.5,78,39,6.29,scattered clouds
1,Atar,MR,20.5169,-13.0499,103.26,25,61,4.21,broken clouds
2,Cape Town,ZA,-33.9258,18.4232,61.21,64,40,5.99,scattered clouds
3,Nouadhibou,MR,20.931,-17.0347,93.18,46,0,8.05,clear sky
4,Bambous Virieux,MU,-20.3428,57.7575,72.21,73,5,5.32,clear sky
5,Yellowknife,CA,62.456,-114.3525,45.72,62,0,8.16,clear sky
6,Qaanaaq,GL,77.484,-69.3632,38.44,82,100,4.29,overcast clouds
7,New Norfolk,AU,-42.7826,147.0587,53.1,76,100,1.99,overcast clouds
8,Hermanus,ZA,-34.4187,19.2345,59.81,60,4,10.29,clear sky
9,Busselton,AU,-33.65,115.3333,53.1,73,80,16.49,broken clouds
10,Lebu,CL,-37.6167,-73.65,51.31,92,100,32.79,overcast clouds
11,Kloulklubed,PW,7.0419,134.2556,77.5,71,100,5.61,overcast clouds
12,Rikitea,PF,-23.1203,-134.9692,68.85,53,76,17.83,broken clouds
13,Eenhana,NA,-17.4667,16.3333,89.26,10,0,7.23,clear sky
14,Tokonou,GN,9.65,-9.7833,80.69,76,75,4.94,light rain
15,Tual,ID,-5.6667,132.75,80.19,83,92,15.7,light rain
16,Boende,CD,-0.2167,20.8667,74.77,76,100,2.48,overcast clouds
17,Port Alfred,ZA,-33.5906,26.891,62.13,62,0,18.45,clear sky
18,Coihaique,CL,-45.5752,-72.0662,37.4,94,100,7.81,light rain
19,Lima,PE,-12.0432,-77.0282,59.25,82,90,5.75,overcast clouds
20,Bluff,NZ,-46.6,168.3333,41.81,78,66,16.33,broken clouds
21,Ust-Ilimsk,RU,58.0006,102.6619,56.75,93,95,4.36,overcast clouds
22,Dumai,ID,1.6833,101.45,74.61,92,100,2.84,overcast clouds
23,Kapaa,US,22.0752,-159.319,75.52,81,90,9.22,light rain
24,Tuatapere,NZ,-46.1333,167.6833,41.83,86,100,7.78,overcast clouds
25,Vaini,TO,-21.2,-175.2,69.96,100,75,5.75,light rain
26,Klaksvik,FO,62.2266,-6.589,54.52,87,86,19.6,overcast clouds
27,Hasaki,JP,35.7333,140.8333,77.4,85,100,12.53,heavy intensity rain
28,Yokadouma,CM,3.5167,15.05,75.56,82,97,2.08,light rain
29,Komsomolskiy,UZ,40.4272,71.7189,88.52,29,34,4.61,scattered clouds
30,Bredasdorp,ZA,-34.5322,20.0403,61.92,48,56,11.5,broken clouds
31,Dikson,RU,73.5069,80.5464,42.82,95,100,20.42,overcast clouds
32,Cherskiy,RU,68.75,161.3,57.58,60,100,7.67,overcast clouds
33,Tel Aviv-Yafo,IL,32.0805,34.7805,92.7,68,20,12.66,few clouds
34,Marathon,US,44.9,-89.7668,74.73,86,90,1.01,overcast clouds
35,Victoria,HK,22.2855,114.1577,86.32,80,100,1.99,overcast clouds
36,Hamilton,US,39.1834,-84.5333,84.99,65,17,1.99,few clouds
37,Buraydah,SA,26.326,43.975,103.48,9,0,12.62,clear sky
38,Bredasdorp,ZA,-34.5322,20.0403,61.92,48,56,11.5,broken clouds
39,Mataura,NZ,-46.1927,168.8643,41.49,87,29,3.78,light rain
40,Rikitea,PF,-23.1203,-134.9692,68.85,53,76,17.83,broken clouds
41,Novo Aripuana,BR,-5.1206,-60.3797,98.42,21,39,6.29,scattered clouds
42,Chuy,UY,-33.6971,-53.4616,59.47,52,82,9.19,broken clouds
43,Illapel,CL,-31.6308,-71.1653,65.48,25,96,4.61,overcast clouds
44,Puerto Ayora,EC,-0.7393,-90.3518,71.56,96,95,5.01,light rain
45,Tezu,IN,27.9167,96.1667,76.39,98,98,2.48,overcast clouds
46,Esperance,AU,-33.8667,121.9,55.24,80,5,22.53,clear sky
47,Georgetown,MY,5.4112,100.3354,82.89,81,20,0.0,heavy intensity rain
48,Guerrero Negro,MX,27.9769,-114.0611,69.17,73,73,9.98,broken clouds
49,Jeremie,HT,18.65,-74.1167,85.96,64,59,3.51,broken clouds
50,La Ronge,CA,55.1001,-105.2842,50.25,66,2,10.36,clear sky
51,Touros,BR,-5.1989,-35.4608,85.1,57,3,18.19,clear sky
52,Ushuaia,AR,-54.8,-68.3,35.22,80,0,5.75,clear sky
53,East London,ZA,-33.0153,27.9116,63.54,63,0,21.85,clear sky
54,Hobart,AU,-42.8794,147.3294,53.46,74,75,1.01,broken clouds
55,Kieta,PG,-6.2167,155.6333,78.76,85,89,5.7,light rain
56,Atuona,PF,-9.8,-139.0333,76.86,73,23,18.12,few clouds
57,Ribeira Grande,PT,38.5167,-28.7,77.4,73,20,9.22,few clouds
58,Jamestown,US,42.097,-79.2353,80.29,83,43,2.37,scattered clouds
59,Ushuaia,AR,-54.8,-68.3,35.22,80,0,5.75,clear sky
60,Mataura,NZ,-46.1927,168.8643,41.49,87,29,3.78,light rain
61,Hamilton,US,39.1834,-84.5333,84.99,65,17,1.99,few clouds
62,Sao Mateus,BR,-18.7161,-39.8589,82.78,46,22,8.12,few clouds
63,Bac Lieu,VN,9.285,105.7244,81.5,81,53,8.1,broken clouds
64,Kapaa,US,22.0752,-159.319,75.52,81,90,9.22,light rain
65,Biak,ID,-0.9131,122.8766,74.52,90,58,7.27,light rain
66,Bluff,NZ,-46.6,168.3333,41.81,78,66,16.33,broken clouds
67,Axim,GH,4.8699,-2.2405,80.02,73,84,10.38,light rain
68,Gorom-Gorom,BF,14.4439,-0.2361,97.75,36,87,7.36,overcast clouds
69,Osijek,HR,45.5511,18.6939,87.62,32,20,5.75,few clouds
70,Pingliang,CN,35.5392,106.6861,64.56,82,100,7.02,light rain
71,Nikolskoye,RU,59.7035,30.7861,63.01,77,75,5.23,broken clouds
72,Albany,US,42.6001,-73.9662,82.15,81,94,5.14,overcast clouds
73,Dunedin,NZ,-45.8742,170.5036,46.8,63,78,14.0,broken clouds
74,Kapaa,US,22.0752,-159.319,75.52,81,90,9.22,light rain
75,Muros,ES,42.7762,-9.0603,82.99,86,97,4.74,overcast clouds
76,Castro,BR,-24.7911,-50.0119,78.69,30,0,4.88,clear sky
77,Rikitea,PF,-23.1203,-134.9692,68.85,53,76,17.83,broken clouds
78,Meadow Lake,US,34.8014,-106.5436,77.65,33,3,7.78,clear sky
79,Cayenne,GF,4.9333,-52.3333,87.84,76,40,4.0,scattered clouds
80,Vallenar,CL,-28.5708,-70.7581,75.31,23,0,4.54,clear sky
81,Ust-Nera,RU,64.5667,143.2,60.39,98,100,5.35,moderate rain
82,Ushuaia,AR,-54.8,-68.3,35.22,80,0,5.75,clear sky
83,Yellowknife,CA,62.456,-114.3525,46.92,81,20,6.91,few clouds
84,Korla,CN,41.7597,86.1469,86.09,18,5,5.41,clear sky
85,Hermanus,ZA,-34.4187,19.2345,59.81,60,4,10.29,clear sky
86,Nome,US,64.5011,-165.4064,48.27,81,75,13.8,broken clouds
87,Sobolevo,RU,54.4299,31.8996,66.51,71,84,9.35,light rain
88,Sitka,US,57.0531,-135.33,55.29,82,90,5.75,light rain
89,Saldanha,ZA,-33.0117,17.9442,56.71,59,1,9.13,clear sky
90,Provideniya,RU,64.3833,-173.3,46.63,98,100,5.06,overcast clouds
91,Yebaishou,CN,41.3975,119.6408,64.63,73,1,3.96,clear sky
92,Japura,ID,-0.3167,102.35,74.26,92,100,2.17,overcast clouds
93,Batagay,RU,67.6333,134.6333,58.32,83,100,2.82,overcast clouds
94,Albany,US,42.6001,-73.9662,82.15,81,94,5.14,overcast clouds
95,Sola,VU,-13.8833,167.55,78.17,76,98,21.18,overcast clouds
96,Storforshei,NO,66.4043,14.5233,55.65,62,75,10.36,broken clouds
97,Xining,CN,36.6167,101.7667,55.26,91,100,1.12,overcast clouds
98,Arraial Do Cabo,BR,-22.9661,-42.0278,82.36,61,0,10.36,clear sky
99,Kamaishi,JP,39.2667,141.8833,72.46,98,98,2.53,overcast clouds
100,Saint-Philippe,RE,-21.3585,55.7679,72.95,73,7,8.72,clear sky
101,Kuznechnoye,RU,61.12,29.8686,58.68,87,92,5.75,overcast clouds
102,Dibulla,CO,11.2725,-73.3091,86.18,65,23,4.41,few clouds
103,Husavik,IS,66.0449,-17.3389,57.11,58,96,5.23,overcast clouds
104,San Quintin,MX,30.4833,-115.95,68.43,74,97,1.72,overcast clouds
105,Mahebourg,MU,-20.4081,57.7,72.25,73,11,5.01,few clouds
106,Tiksi,RU,71.6872,128.8694,40.87,96,100,8.21,overcast clouds
107,Busselton,AU,-33.65,115.3333,53.1,73,80,16.49,broken clouds
108,Hilo,US,19.7297,-155.09,72.63,92,17,1.01,few clouds
109,Chuy,UY,-33.6971,-53.4616,59.47,52,82,9.19,broken clouds
110,Pevek,RU,69.7008,170.3133,41.2,96,100,4.83,moderate rain
111,Mataura,NZ,-46.1927,168.8643,41.49,87,29,3.78,light rain
112,Evensk,RU,61.95,159.2333,48.31,96,100,3.62,overcast clouds
113,Pochutla,MX,15.7432,-96.4661,77.83,82,100,1.59,overcast clouds
114,Tiznit,MA,29.5833,-9.5,82.72,35,99,10.89,overcast clouds
115,Shorapur,IN,16.5167,76.75,77.79,74,93,12.73,light rain
116,Hualmay,PE,-11.0964,-77.6139,63.72,77,68,8.16,broken clouds
117,Mataura,NZ,-46.1927,168.8643,41.49,87,29,3.78,light rain
118,Tasiilaq,GL,65.6145,-37.6368,50.16,94,100,7.23,overcast clouds
119,Marawi,PH,7.9986,124.2928,66.65,94,100,0.96,overcast clouds
120,Ilulissat,GL,69.2167,-51.1,45.99,62,82,3.36,broken clouds
121,Mar Del Plata,AR,-38.0023,-57.5575,48.22,81,75,11.5,light rain
122,Pio Xii,BR,-3.8325,-45.1525,95.18,34,21,5.59,few clouds
123,Ushuaia,AR,-54.8,-68.3,35.22,80,0,5.75,clear sky
124,Rikitea,PF,-23.1203,-134.9692,68.85,53,76,17.83,broken clouds
125,Provideniya,RU,64.3833,-173.3,46.63,98,100,5.06,overcast clouds
126,Busselton,AU,-33.65,115.3333,53.1,73,80,16.49,broken clouds
127,Ushuaia,AR,-54.8,-68.3,35.22,80,0,5.75,clear sky
128,Moose Factory,CA,51.2585,-80.6094,86.0,43,2,10.18,clear sky
129,Hermanus,ZA,-34.4187,19.2345,59.81,60,4,10.29,clear sky
130,Nikolskoye,RU,59.7035,30.7861,63.01,77,75,5.23,broken clouds
131,Temerloh,MY,3.4483,102.4176,75.36,93,99,2.19,overcast clouds
132,Bluff,NZ,-46.6,168.3333,41.81,78,66,16.33,broken clouds
133,Mataura,NZ,-46.1927,168.8643,41.49,87,29,3.78,light rain
134,Busselton,AU,-33.65,115.3333,53.1,73,80,16.49,broken clouds
135,Husavik,IS,66.0449,-17.3389,57.11,58,96,5.23,overcast clouds
136,Bethel,US,41.3712,-73.414,81.93,85,100,5.53,overcast clouds
137,Saldanha,ZA,-33.0117,17.9442,56.71,59,1,9.13,clear sky
138,Upernavik,GL,72.7868,-56.1549,40.95,86,89,10.94,overcast clouds
139,Arraial Do Cabo,BR,-22.9661,-42.0278,82.36,61,0,10.36,clear sky
140,Rikitea,PF,-23.1203,-134.9692,68.85,53,76,17.83,broken clouds
141,Jamestown,US,42.097,-79.2353,80.29,83,43,2.37,scattered clouds
142,Karratha,AU,-20.7377,116.8463,72.28,62,0,7.83,clear sky
143,Nisia Floresta,BR,-6.0911,-35.2086,85.01,48,2,15.23,clear sky
144,Busselton,AU,-33.65,115.3333,53.1,73,80,16.49,broken clouds
145,Arraial Do Cabo,BR,-22.9661,-42.0278,82.36,61,0,10.36,clear sky
146,Telde,ES,27.9924,-15.4192,83.05,69,20,21.85,few clouds
147,Isangel,VU,-19.55,169.2667,70.2,85,5,7.83,clear sky
148,New Norfolk,AU,-42.7826,147.0587,53.1,76,100,1.99,overcast clouds
149,Vaini,TO,-21.2,-175.2,69.96,100,75,5.75,light rain
150,Ahipara,NZ,-35.1667,173.1667,54.3,86,90,11.23,overcast clouds
151,Manono,CD,-7.3,27.4167,93.42,24,62,4.97,broken clouds
152,Dingle,PH,10.9995,122.6711,77.52,87,100,1.77,light rain
153,Karpathos,GR,35.507,27.2132,82.36,83,20,27.63,few clouds
154,Ostrovnoy,RU,68.0531,39.5131,49.53,89,100,9.48,overcast clouds
155,Port Blair,IN,11.6667,92.75,81.64,77,37,6.8,scattered clouds
156,Albany,US,42.6001,-73.9662,82.15,81,94,5.14,overcast clouds
157,Cape Town,ZA,-33.9258,18.4232,61.21,65,40,5.99,scattered clouds
158,Mataura,NZ,-46.1927,168.8643,41.49,87,29,3.78,light rain
159,Mataura,NZ,-46.1927,168.8643,41.49,87,29,3.78,light rain
160,Carlton,US,45.2943,-123.1765,61.03,92,90,4.61,overcast clouds
161,Punta Arenas,CL,-53.15,-70.9167,33.91,69,75,6.91,broken clouds
162,Mareeba,AU,-17.0,145.4333,69.44,88,97,4.52,overcast clouds
163,Ushuaia,AR,-54.8,-68.3,35.22,80,0,5.75,clear sky
164,Rikitea,PF,-23.1203,-134.9692,68.85,53,76,17.83,broken clouds
165,Avarua,CK,-21.2078,-159.775,69.85,94,100,3.44,overcast clouds
166,Cidreira,BR,-30.1811,-50.2056,63.64,84,17,9.62,few clouds
167,Ponta Do Sol,PT,32.6667,-17.1,82.0,64,12,2.13,few clouds
168,Busselton,AU,-33.65,115.3333,53.1,73,80,16.49,broken clouds
169,Buala,SB,-8.145,159.5921,78.67,84,21,6.15,light rain
170,Hithadhoo,MV,-0.6,73.0833,83.37,71,1,12.82,clear sky
171,Srivardhan,IN,18.0333,73.0167,77.65,87,98,3.78,overcast clouds
172,Cognac,FR,45.5,-0.25,79.57,50,0,9.22,clear sky
173,Mataura,NZ,-46.1927,168.8643,41.49,87,29,3.78,light rain
174,Kahului,US,20.8947,-156.47,76.26,94,5,8.66,clear sky
175,Toora-Khem,RU,52.4675,96.11,39.79,98,100,6.02,light rain
176,Port Alfred,ZA,-33.5906,26.891,62.13,62,0,18.45,clear sky
177,Bluff,NZ,-46.6,168.3333,41.81,78,66,16.33,broken clouds
178,Chambas,CU,22.1928,-78.9136,87.28,65,67,11.7,broken clouds
179,Nuqui,CO,5.7125,-77.2708,81.34,76,87,2.71,overcast clouds
180,Guerrero Negro,MX,27.9769,-114.0611,69.17,73,73,9.98,broken clouds
181,Lompoc,US,34.6391,-120.4579,65.08,82,90,0.0,overcast clouds
182,Tromso,NO,69.6496,18.957,50.65,81,75,11.5,broken clouds
183,Leningradskiy,RU,69.3833,178.4167,37.45,92,100,2.53,overcast clouds
184,Port Shepstone,ZA,-30.7414,30.455,67.05,63,0,17.74,clear sky
185,Lavrentiya,RU,65.5833,-171.0,44.69,89,12,7.67,few clouds
186,Anadyr,RU,64.75,177.4833,41.5,93,0,0.0,clear sky
187,Hermanus,ZA,-34.4187,19.2345,59.81,60,4,10.29,clear sky
188,Itoman,JP,26.1247,127.6694,82.42,83,20,6.91,few clouds
189,Lebu,CL,-37.6167,-73.65,51.31,92,100,32.79,overcast clouds
190,Sorland,NO,67.667,12.6934,48.85,71,88,17.31,overcast clouds
191,Bredasdorp,ZA,-34.5322,20.0403,61.92,48,56,11.5,broken clouds
192,Hilo,US,19.7297,-155.09,72.63,92,17,1.01,few clouds
193,Pangody,RU,65.85,74.4859,66.07,69,47,6.69,scattered clouds
194,Maniitsoq,GL,65.4167,-52.9,46.71,83,69,9.71,broken clouds
195,Ilulissat,GL,69.2167,-51.1,45.99,62,82,3.36,broken clouds
196,Avarua,CK,-21.2078,-159.775,69.85,94,100,3.44,overcast clouds
197,Rikitea,PF,-23.1203,-134.9692,68.85,53,76,17.83,broken clouds
198,Aklavik,CA,68.2191,-135.0107,48.92,75,99,9.51,overcast clouds
199,Tasiilaq,GL,65.6145,-37.6368,50.16,94,100,7.23,overcast clouds
200,Wangou,CN,42.0623,126.9127,59.83,99,100,2.93,light rain
201,Vardo,NO,70.3705,31.1107,46.15,79,100,16.82,overcast clouds
202,Sikonge,TZ,-5.6333,32.7667,85.05,27,68,7.9,broken clouds
203,Nikolskoye,RU,59.7035,30.7861,63.01,77,75,5.23,broken clouds
204,Dikson,RU,73.5069,80.5464,42.82,95,100,20.42,overcast clouds
205,Rawson,AR,-43.3002,-65.1023,46.78,62,100,22.62,overcast clouds
206,Bredasdorp,ZA,-34.5322,20.0403,61.92,48,56,11.5,broken clouds
207,Glendive,US,47.1053,-104.7125,58.78,61,5,5.93,clear sky
208,Tambacounda,SN,13.7539,-13.7586,92.25,54,25,3.69,scattered clouds
209,Takaka,NZ,-40.85,172.8,49.55,72,100,1.83,overcast clouds
210,Bulalacao,PH,12.3254,121.3435,80.11,81,100,5.12,overcast clouds
211,Sao Jose Da Coroa Grande,BR,-8.8978,-35.1478,79.38,70,48,9.75,scattered clouds
212,Dingle,PH,10.9995,122.6711,77.52,87,100,1.77,light rain
213,Ribeira Grande,PT,38.5167,-28.7,77.4,73,20,9.22,few clouds
214,Yellowknife,CA,62.456,-114.3525,46.92,81,20,6.91,few clouds
215,Khatanga,RU,71.9667,102.5,44.24,85,100,5.99,overcast clouds
216,Guerrero Negro,MX,27.9769,-114.0611,69.17,73,73,9.98,broken clouds
217,Hermanus,ZA,-34.4187,19.2345,59.81,60,4,10.29,clear sky
218,Ushuaia,AR,-54.8,-68.3,35.22,80,0,5.75,clear sky
219,Adrar,MR,20.5022,-10.0711,106.92,15,61,8.37,broken clouds
220,Kurumkan,RU,54.3,110.3,55.29,89,94,2.64,overcast clouds
221,Punta Arenas,CL,-53.15,-70.9167,33.91,69,75,6.91,broken clouds
222,Zyryanka,RU,65.75,150.85,62.33,57,100,7.54,overcast clouds
223,Lookan,PH,5.037,120.1027,82.29,72,92,4.18,overcast clouds
224,Butaritari,KI,3.0707,172.7902,79.79,70,100,18.19,overcast clouds
225,Bloomsburg,US,41.0037,-76.4549,81.91,80,22,1.01,few clouds
226,Cherskiy,RU,68.75,161.3,57.58,60,100,7.67,overcast clouds
227,Rikitea,PF,-23.1203,-134.9692,68.85,53,76,17.83,broken clouds
228,Itea,GR,38.4333,22.4167,90.0,54,58,4.36,broken clouds
229,Talnakh,RU,69.4865,88.3972,49.15,83,100,13.76,light rain
230,Hermanus,ZA,-34.4187,19.2345,59.81,60,4,10.29,clear sky
231,Tiksi,RU,71.6872,128.8694,40.87,96,100,8.21,overcast clouds
232,Ushuaia,AR,-54.8,-68.3,35.22,80,0,5.75,clear sky
233,Busselton,AU,-33.65,115.3333,53.1,73,80,16.49,broken clouds
234,Padang,ID,-0.9492,100.3543,78.85,85,100,1.41,overcast clouds
235,Albany,US,42.6001,-73.9662,82.15,81,94,5.14,overcast clouds
236,Atuona,PF,-9.8,-139.0333,76.86,73,23,18.12,few clouds
237,Kodiak,US,57.79,-152.4072,48.92,70,100,3.38,overcast clouds
238,Port-Cartier,CA,50.0334,-66.8654,66.92,55,100,5.79,overcast clouds
239,Laguna,US,38.421,-121.4238,64.47,84,75,4.0,mist
240,Saskylakh,RU,71.9167,114.0833,43.03,92,100,9.69,overcast clouds
241,Rikitea,PF,-23.1203,-134.9692,68.85,53,76,17.83,broken clouds
242,Busselton,AU,-33.65,115.3333,53.1,73,80,16.49,broken clouds
243,Albany,US,42.6001,-73.9662,82.15,81,94,5.14,overcast clouds
244,Tura,IN,25.5198,90.2201,74.26,96,87,4.23,overcast clouds
245,Kasongo,CD,-4.45,26.6667,85.03,44,93,4.92,overcast clouds
246,Rikitea,PF,-23.1203,-134.9692,68.85,53,76,17.83,broken clouds
247,Puerto Ayora,EC,-0.7393,-90.3518,71.56,96,95,5.01,light rain
248,Porto Novo,BJ,6.4965,2.6036,77.07,86,97,11.59,light rain
249,Stornoway,GB,58.2093,-6.3865,59.94,100,75,6.91,light intensity drizzle
250,Avarua,CK,-21.2078,-159.775,69.85,94,100,3.44,overcast clouds
251,Gander,CA,48.9682,-54.5906,55.53,94,90,6.91,overcast clouds
252,Saint-Philippe,RE,-21.3585,55.7679,72.95,73,7,8.72,clear sky
253,Kampot,KH,10.6167,104.1833,80.26,84,100,5.77,overcast clouds
254,Flin Flon,CA,54.7682,-101.865,54.41,65,100,13.56,overcast clouds
255,Acapulco,MX,16.8634,-99.8901,79.86,84,100,4.94,overcast clouds
256,Ushuaia,AR,-54.8,-68.3,35.22,80,0,5.75,clear sky
257,Kavieng,PG,-2.5744,150.7967,81.72,80,100,15.99,overcast clouds
258,Arraial Do Cabo,BR,-22.9661,-42.0278,82.36,61,0,10.36,clear sky
259,Barrow,US,71.2906,-156.7887,42.82,87,90,19.57,fog
260,Mataura,NZ,-46.1927,168.8643,41.49,87,29,3.78,light rain
261,Albany,US,42.6001,-73.9662,82.15,81,94,5.14,overcast clouds
262,Mataura,NZ,-46.1927,168.8643,41.49,87,29,3.78,light rain
263,Fairbanks,US,64.8378,-147.7164,50.09,96,90,8.05,light rain
264,Bluff,NZ,-46.6,168.3333,41.81,78,66,16.33,broken clouds
265,Ushuaia,AR,-54.8,-68.3,35.22,80,0,5.75,clear sky
266,Punta Arenas,CL,-53.15,-70.9167,33.91,69,75,6.91,broken clouds
267,Chuy,UY,-33.6971,-53.4616,59.47,52,82,9.19,broken clouds
268,Yarkovo,RU,57.4028,67.0786,77.27,47,4,3.38,clear sky
269,Isangel,VU,-19.55,169.2667,70.2,85,5,7.83,clear sky
270,Yellowknife,CA,62.456,-114.3525,46.92,81,20,6.91,few clouds
271,Ilulissat,GL,69.2167,-51.1,45.99,62,82,3.36,broken clouds
272,Busselton,AU,-33.65,115.3333,53.1,73,80,16.49,broken clouds
273,Roald,NO,62.5833,6.1333,62.17,67,20,11.5,few clouds
274,Isangel,VU,-19.55,169.2667,70.2,85,5,7.83,clear sky
275,Tiksi,RU,71.6872,128.8694,40.87,96,100,8.21,overcast clouds
276,Ternate,ID,0.8,127.4,79.56,80,32,3.02,scattered clouds
277,Bianzhuang,CN,34.8486,118.0447,73.69,88,100,2.06,light rain
278,Pisco,PE,-13.7,-76.2167,62.02,84,68,2.93,broken clouds
279,Hithadhoo,MV,-0.6,73.0833,83.37,71,1,12.82,clear sky
280,Punta Arenas,CL,-53.15,-70.9167,33.91,69,75,6.91,broken clouds
281,Dikson,RU,73.5069,80.5464,42.82,95,100,20.42,overcast clouds
282,Katsuura,JP,35.1333,140.3,80.71,88,100,14.45,light rain
283,Severo-Kurilsk,RU,50.6789,156.125,53.51,94,81,3.06,broken clouds
284,Seoul,KR,37.5683,126.9778,74.77,83,75,8.05,broken clouds
285,Ushuaia,AR,-54.8,-68.3,35.22,80,0,5.75,clear sky
286,Longyearbyen,SJ,78.2186,15.6401,40.84,75,75,5.75,broken clouds
287,Burghausen,DE,48.1667,12.8333,80.8,56,73,0.96,broken clouds
288,Busselton,AU,-33.65,115.3333,53.1,73,80,16.49,broken clouds
289,Bengkulu,ID,-3.8004,102.2655,75.52,91,100,6.8,overcast clouds
290,Albany,US,42.6001,-73.9662,82.15,81,94,5.14,overcast clouds
291,Nerchinskiy Zavod,RU,51.3088,119.61,54.93,83,61,2.48,broken clouds
292,Barbosa Ferraz,BR,-24.03,-52.0117,90.79,19,0,4.74,clear sky
293,Qaanaaq,GL,77.484,-69.3632,38.44,82,100,4.29,overcast clouds
294,Ushuaia,AR,-54.8,-68.3,35.22,80,0,5.75,clear sky
295,Paracuru,BR,-3.41,-39.0306,87.82,46,9,17.31,clear sky
296,East London,ZA,-33.0153,27.9116,63.54,63,0,21.85,clear sky
297,Barrow,US,71.2906,-156.7887,42.82,87,90,19.57,fog
298,East London,ZA,-33.0153,27.9116,63.54,63,0,21.85,clear sky
299,Fort Nelson,CA,58.8053,-122.7002,49.78,80,94,5.93,overcast clouds
300,Yellowknife,CA,62.456,-114.3525,46.92,81,20,6.91,few clouds
301,Port Alfred,ZA,-33.5906,26.891,62.13,62,0,18.45,clear sky
302,Qaanaaq,GL,77.484,-69.3632,38.44,82,100,4.29,overcast clouds
303,Lagoa,PT,39.05,-27.9833,73.08,76,0,10.36,clear sky
304,Kodiak,US,57.79,-152.4072,48.92,70,100,3.38,overcast clouds
305,Clyde River,CA,70.4692,-68.5914,44.55,67,60,4.45,broken clouds
306,Ushuaia,AR,-54.8,-68.3,35.22,80,0,5.75,clear sky
307,Huaicheng,CN,23.9051,112.1931,79.72,77,98,0.47,overcast clouds
308,Punta Arenas,CL,-53.15,-70.9167,33.91,69,75,6.91,broken clouds
309,Tual,ID,-5.6667,132.75,80.19,83,92,15.7,light rain
310,Ushuaia,AR,-54.8,-68.3,35.22,80,0,5.75,clear sky
311,Arraial Do Cabo,BR,-22.9661,-42.0278,82.36,61,0,10.36,clear sky
312,Tiksi,RU,71.6872,128.8694,40.87,96,100,8.21,overcast clouds
313,Tasiilaq,GL,65.6145,-37.6368,50.16,94,100,7.23,overcast clouds
314,Hobart,AU,-42.8794,147.3294,53.46,74,75,1.01,broken clouds
315,Mataura,NZ,-46.1927,168.8643,41.49,87,29,3.78,light rain
316,Saskylakh,RU,71.9167,114.0833,43.03,92,100,9.69,overcast clouds
317,Guasdualito,VE,7.2424,-70.7324,81.72,81,15,2.55,few clouds
318,Punta Arenas,CL,-53.15,-70.9167,33.91,69,75,6.91,broken clouds
319,Torbay,CA,47.6666,-52.7314,64.27,76,91,1.99,overcast clouds
320,Barrow,US,71.2906,-156.7887,42.82,87,90,19.57,fog
321,Khani,GE,41.9563,42.9566,72.97,81,67,3.96,broken clouds
322,Nouadhibou,MR,20.931,-17.0347,93.18,46,0,8.05,clear sky
323,Port Alfred,ZA,-33.5906,26.891,62.13,62,0,18.45,clear sky
324,Tautira,PF,-17.7333,-149.15,73.42,79,85,24.52,light rain
325,Mahebourg,MU,-20.4081,57.7,72.25,73,11,5.01,few clouds
326,San Cristobal,VE,7.7669,-72.225,78.15,63,75,6.58,broken clouds
327,Iqaluit,CA,63.7506,-68.5145,49.1,63,14,5.86,few clouds
328,Nuevo Casas Grandes,MX,30.4167,-107.9167,70.75,77,83,3.0,broken clouds
329,Ushuaia,AR,-54.8,-68.3,35.22,80,0,5.75,clear sky
330,Sinnar,SD,13.5691,33.5672,86.49,53,100,10.38,overcast clouds
331,Tiksi,RU,71.6872,128.8694,40.87,96,100,8.21,overcast clouds
332,Hermanus,ZA,-34.4187,19.2345,59.81,60,4,10.29,clear sky
333,Ahipara,NZ,-35.1667,173.1667,54.3,86,90,11.23,overcast clouds
334,Cidreira,BR,-30.1811,-50.2056,63.64,84,17,9.62,few clouds
335,Rikitea,PF,-23.1203,-134.9692,68.85,53,76,17.83,broken clouds
336,Melenki,RU,55.3343,41.6295,81.23,52,83,4.68,broken clouds
337,Busselton,AU,-33.65,115.3333,53.1,73,80,16.49,broken clouds
338,Pisco,PE,-13.7,-76.2167,62.02,84,68,2.93,broken clouds
339,Emerald,AU,-23.5333,148.1667,60.93,77,0,8.95,clear sky
340,Kapaa,US,22.0752,-159.319,75.52,81,90,9.22,light rain
341,Burewala,PK,30.1667,72.65,88.57,53,83,16.2,broken clouds
342,Carnarvon,AU,-24.8667,113.6333,64.83,70,0,23.47,clear sky
343,Paka,MY,4.6374,103.4368,78.69,88,92,7.09,overcast clouds
344,Punta Arenas,CL,-53.15,-70.9167,33.91,69,75,6.91,broken clouds
345,Ponta Do Sol,PT,32.6667,-17.1,82.0,64,12,2.13,few clouds
346,Komsomolskiy,UZ,40.4272,71.7189,88.52,29,34,4.61,scattered clouds
347,Kaitangata,NZ,-46.2817,169.8464,35.29,89,57,4.92,broken clouds
348,San Quintin,MX,30.4833,-115.95,68.43,74,97,1.72,overcast clouds
349,Barrow,US,71.2906,-156.7887,42.82,87,90,19.57,fog
350,Avarua,CK,-21.2078,-159.775,69.85,94,100,3.44,overcast clouds
351,Albany,US,42.6001,-73.9662,82.15,81,94,5.14,overcast clouds
352,Arraial Do Cabo,BR,-22.9661,-42.0278,82.36,61,0,10.36,clear sky
353,Lompoc,US,34.6391,-120.4579,65.08,82,90,0.0,overcast clouds
354,Busselton,AU,-33.65,115.3333,53.1,73,80,16.49,broken clouds
355,Manali,IN,13.1667,80.2667,84.29,74,100,12.08,moderate rain
356,Sur,OM,22.5667,59.5289,88.07,57,4,2.51,clear sky
357,Tasiilaq,GL,65.6145,-37.6368,50.16,94,100,7.23,overcast clouds
358,Lompoc,US,34.6391,-120.4579,65.08,82,90,0.0,overcast clouds
359,Grindavik,IS,63.8424,-22.4338,56.89,62,0,5.75,light rain
360,Vaini,TO,-21.2,-175.2,69.96,100,75,5.75,light rain
361,Salalah,OM,17.0151,54.0924,78.55,85,100,5.03,overcast clouds
362,Busselton,AU,-33.65,115.3333,53.1,73,80,16.49,broken clouds
363,Busselton,AU,-33.65,115.3333,53.1,73,80,16.49,broken clouds
364,Hobart,AU,-42.8794,147.3294,53.46,74,75,1.01,broken clouds
365,Avarua,CK,-21.2078,-159.775,69.85,94,100,3.44,overcast clouds
366,Mar Del Plata,AR,-38.0023,-57.5575,48.22,81,75,11.5,light rain
367,Nantucket,US,41.2835,-70.0995,84.96,87,22,6.55,few clouds
368,Bacolod,PH,10.6667,122.95,78.67,84,83,5.1,light rain
369,Shangrao,CN,28.4532,117.9686,78.53,88,5,1.52,clear sky
370,Albany,US,42.6001,-73.9662,82.15,81,94,5.14,overcast clouds
371,Acarau,BR,-2.8856,-40.12,88.74,47,5,18.95,clear sky
372,Vaini,TO,-21.2,-175.2,69.96,100,75,5.75,light rain
373,Sorland,NO,67.667,12.6934,48.85,71,88,17.31,overcast clouds
374,Yeppoon,AU,-23.1333,150.7333,58.78,85,0,3.22,clear sky
375,Manokwari,ID,-0.8667,134.0833,78.58,76,24,3.6,few clouds
376,Englehart,CA,47.8169,-79.8664,84.36,53,0,7.76,clear sky
377,Malumfashi,NG,11.7853,7.6218,86.32,52,87,7.87,overcast clouds
378,Bredasdorp,ZA,-34.5322,20.0403,61.92,48,56,11.5,broken clouds
379,Novo Aripuana,BR,-5.1206,-60.3797,98.42,21,39,6.29,scattered clouds
380,Tautira,PF,-17.7333,-149.15,73.42,79,85,24.52,light rain
381,Cidreira,BR,-30.1811,-50.2056,63.64,84,17,9.62,few clouds
382,Tuktoyaktuk,CA,69.4541,-133.0374,45.28,81,100,5.32,overcast clouds
383,Bozeman,US,45.6796,-111.0386,55.51,81,100,1.01,overcast clouds
384,Saint-Philippe,RE,-21.3585,55.7679,72.95,73,7,8.72,clear sky
385,Palaikastron,GR,35.2,26.25,79.16,63,0,25.41,clear sky
386,Kwinana,AU,-32.25,115.7667,59.23,75,68,20.13,broken clouds
387,Busselton,AU,-33.65,115.3333,53.1,73,80,16.49,broken clouds
388,New Norfolk,AU,-42.7826,147.0587,53.1,76,100,1.99,overcast clouds
389,Kruisfontein,ZA,-34.0033,24.7314,59.88,67,3,13.62,clear sky
390,Hastings,GB,50.8552,0.5729,68.38,92,100,10.8,overcast clouds
391,Bluff,NZ,-46.6,168.3333,41.81,78,66,16.33,broken clouds
392,Quelimane,MZ,-17.8786,36.8883,76.95,78,40,10.36,scattered clouds
393,La Asuncion,VE,11.0333,-63.8628,83.93,79,24,11.5,few clouds
394,Saint-Philippe,RE,-21.3585,55.7679,72.95,73,7,8.72,clear sky
395,Slave Lake,CA,55.2834,-114.769,52.63,54,9,3.8,clear sky
396,Goundam,ML,16.4145,-3.6708,103.68,23,3,5.55,clear sky
397,Porto Belo,BR,-27.1578,-48.5531,79.79,65,0,5.3,clear sky
398,Ekibastuz,KZ,51.6667,75.3667,72.48,28,0,7.52,clear sky
399,Sitka,US,57.0531,-135.33,55.29,82,90,5.75,light rain
400,Hilo,US,19.7297,-155.09,72.63,92,17,1.01,few clouds
401,Vardo,NO,70.3705,31.1107,46.15,79,100,16.82,overcast clouds
402,Nanortalik,GL,60.1432,-45.2371,48.34,74,87,5.17,overcast clouds
403,Sur,OM,22.5667,59.5289,88.07,57,4,2.51,clear sky
404,Ushuaia,AR,-54.8,-68.3,35.22,80,0,5.75,clear sky
405,Bluff,NZ,-46.6,168.3333,41.81,78,66,16.33,broken clouds
406,Pasighat,IN,28.0667,95.3333,78.1,97,91,1.25,overcast clouds
407,Waipawa,NZ,-41.4122,175.5153,39.83,85,13,6.98,few clouds
408,Halifax,CA,44.6453,-63.5724,75.42,74,45,3.44,scattered clouds
409,Nikolskoye,RU,59.7035,30.7861,63.01,77,75,5.23,broken clouds
410,Birmitrapur,IN,22.4,84.7667,79.65,83,73,4.85,broken clouds
411,Hilo,US,19.7297,-155.09,72.63,92,17,1.01,few clouds
412,Yulara,AU,-25.2406,130.9889,65.8,27,0,4.61,clear sky
413,Albany,US,42.6001,-73.9662,82.15,81,94,5.14,overcast clouds
414,Chokurdakh,RU,70.6333,147.9167,45.73,86,86,13.94,overcast clouds
415,Saint-Philippe,RE,-21.3585,55.7679,72.95,73,7,8.72,clear sky
416,Zheleznodorozhnyy,RU,55.7503,38.0042,71.15,63,100,8.55,overcast clouds
417,New Norfolk,AU,-42.7826,147.0587,53.1,76,100,1.99,overcast clouds
418,Tuktoyaktuk,CA,69.4541,-133.0374,45.28,81,100,5.32,overcast clouds
419,Punta Arenas,CL,-53.15,-70.9167,33.91,69,75,6.91,broken clouds
420,Ushuaia,AR,-54.8,-68.3,35.22,80,0,5.75,clear sky
421,Muskego,US,42.9058,-88.139,84.58,76,1,3.0,clear sky
422,Ushuaia,AR,-54.8,-68.3,35.22,80,0,5.75,clear sky
423,Nanortalik,GL,60.1432,-45.2371,48.34,74,87,5.17,overcast clouds
424,Bengkulu,ID,-3.8004,102.2655,75.52,91,100,6.8,overcast clouds
425,Zhezkazgan,KZ,47.8043,67.7144,80.94,24,53,11.1,broken clouds
426,Bilibino,RU,68.0546,166.4372,48.9,80,99,3.22,overcast clouds
427,Ushuaia,AR,-54.8,-68.3,35.22,80,0,5.75,clear sky
428,Isangel,VU,-19.55,169.2667,70.2,85,5,7.83,clear sky
429,Berlevag,NO,70.8578,29.0864,46.2,80,100,14.56,overcast clouds
430,Hudson Bay,CA,52.85,-102.3842,54.72,71,100,13.02,overcast clouds
431,Nanortalik,GL,60.1432,-45.2371,48.34,74,87,5.17,overcast clouds
432,Nikolskoye,RU,59.7035,30.7861,63.01,77,75,5.23,broken clouds
433,Pisco,PE,-13.7,-76.2167,62.02,84,68,2.93,broken clouds
434,Pangnirtung,CA,66.1451,-65.7125,42.8,100,90,8.05,overcast clouds
435,Kapaa,US,22.0752,-159.319,75.52,81,90,9.22,light rain
436,Hithadhoo,MV,-0.6,73.0833,83.37,71,1,12.82,clear sky
437,Hithadhoo,MV,-0.6,73.0833,83.37,71,1,12.82,clear sky
438,Adrar,MR,20.5022,-10.0711,106.92,15,61,8.37,broken clouds
439,Albany,US,42.6001,-73.9662,82.15,81,94,5.14,overcast clouds
440,Mayo,US,38.8876,-76.5119,85.12,79,75,5.01,broken clouds
441,Bredasdorp,ZA,-34.5322,20.0403,61.92,48,56,11.5,broken clouds
442,Hithadhoo,MV,-0.6,73.0833,83.37,71,1,12.82,clear sky
443,Kondinskoye,RU,59.6481,67.41,76.71,63,23,7.74,few clouds
444,Vaitape,PF,-16.5167,-151.75,77.95,78,14,19.3,light rain
445,Ndele,CF,8.4109,20.6473,77.16,92,93,4.12,moderate rain
446,Burnie,AU,-41.0667,145.9167,52.72,84,69,12.46,broken clouds
447,Punta Arenas,CL,-53.15,-70.9167,33.91,69,75,6.91,broken clouds
448,Doka,SD,13.5167,35.7667,78.66,78,100,8.25,overcast clouds
449,Clyde River,CA,70.4692,-68.5914,44.55,67,60,4.45,broken clouds
450,Busselton,AU,-33.65,115.3333,53.1,73,80,16.49,broken clouds
451,Dikson,RU,73.5069,80.5464,42.82,95,100,20.42,overcast clouds
452,Albany,US,42.6001,-73.9662,82.15,81,94,5.14,overcast clouds
453,Severo-Kurilsk,RU,50.6789,156.125,53.51,94,81,3.06,broken clouds
454,Maues,BR,-3.3836,-57.7186,95.23,34,5,4.27,clear sky
455,Chokurdakh,RU,70.6333,147.9167,45.73,86,86,13.94,overcast clouds
456,Lompoc,US,34.6391,-120.4579,65.08,82,90,0.0,overcast clouds
457,Bluff,NZ,-46.6,168.3333,41.81,78,66,16.33,broken clouds
458,Bluff,NZ,-46.6,168.3333,41.81,78,66,16.33,broken clouds
459,Punta Arenas,CL,-53.15,-70.9167,33.91,69,75,6.91,broken clouds
460,Mataura,NZ,-46.1927,168.8643,41.49,87,29,3.78,light rain
461,Cape Town,ZA,-33.9258,18.4232,61.21,65,40,5.99,scattered clouds
462,Nizhniy Odes,RU,63.6445,54.856,68.16,60,92,3.2,overcast clouds
463,East London,ZA,-33.0153,27.9116,63.54,63,0,21.85,clear sky
464,Castro,BR,-24.7911,-50.0119,78.69,30,0,4.88,clear sky
465,Ushuaia,AR,-54.8,-68.3,35.22,80,0,5.75,clear sky
466,Rio Grande,BR,-32.035,-52.0986,60.03,80,96,10.47,moderate rain
467,Hanzhong,CN,33.0728,107.0303,75.9,95,100,2.95,light rain
468,Albany,US,42.6001,-73.9662,82.15,81,94,5.14,overcast clouds
469,Norman Wells,CA,65.282,-126.8329,51.87,65,100,1.77,overcast clouds
470,Ilulissat,GL,69.2167,-51.1,45.99,62,82,3.36,broken clouds
471,Chuy,UY,-33.6971,-53.4616,59.47,52,82,9.19,broken clouds
472,Pandan,PH,14.0453,124.1694,80.24,82,100,5.17,overcast clouds
473,Hermanus,ZA,-34.4187,19.2345,59.81,60,4,10.29,clear sky
474,Luwuk,ID,-0.9516,122.7875,75.78,92,61,5.44,broken clouds
475,Mataura,NZ,-46.1927,168.8643,41.49,87,29,3.78,light rain
476,Munai,PH,7.9758,124.0636,70.41,95,100,1.92,overcast clouds
477,Bluff,NZ,-46.6,168.3333,41.81,78,66,16.33,broken clouds
478,Castro,BR,-24.7911,-50.0119,78.69,30,0,4.88,clear sky
479,Pulandian,CN,39.3953,121.9669,71.73,89,0,5.03,light rain
480,Ushuaia,AR,-54.8,-68.3,35.22,80,0,5.75,clear sky
481,Aguada De Pasajeros,CU,22.385,-80.8508,89.38,51,86,7.31,overcast clouds
482,Zarya,RU,55.7553,38.0958,71.11,65,100,7.81,overcast clouds
483,Bethel,US,41.3712,-73.414,81.93,85,100,5.53,overcast clouds
484,Ushuaia,AR,-54.8,-68.3,35.22,80,0,5.75,clear sky
485,Yellowknife,CA,62.456,-114.3525,46.92,81,20,6.91,few clouds
486,Puerto Ayora,EC,-0.7393,-90.3518,71.56,96,95,5.01,light rain
487,Saskylakh,RU,71.9167,114.0833,43.03,92,100,9.69,overcast clouds
488,Arraial Do Cabo,BR,-22.9661,-42.0278,82.36,61,0,10.36,clear sky
489,Gobabis,NA,-22.45,18.9667,82.58,8,0,18.21,clear sky
490,Teya,RU,60.3778,92.6267,47.39,72,6,2.01,clear sky
491,Young,UY,-32.6833,-57.6333,61.23,64,90,14.27,overcast clouds
492,Linqu,CN,36.5156,118.5397,72.63,88,89,3.11,light rain
493,Busselton,AU,-33.65,115.3333,53.1,73,80,16.49,broken clouds
494,Mahebourg,MU,-20.4081,57.7,72.25,73,11,5.01,few clouds
495,Zapolyarnyy,RU,69.4154,30.8136,45.68,87,100,10.78,overcast clouds
496,Tiksi,RU,71.6872,128.8694,40.87,96,100,8.21,overcast clouds
497,Butaritari,KI,3.0707,172.7902,79.79,70,100,18.19,overcast clouds
498,Paamiut,GL,61.994,-49.6678,50.94,62,98,5.1,overcast clouds
499,Verkhniy Baskunchak,RU,48.2256,46.7217,92.25,23,40,12.03,scattered clouds
500,Ushuaia,AR,-54.8,-68.3,35.22,80,0,5.75,clear sky
501,Hobart,AU,-42.8794,147.3294,53.46,74,75,1.01,broken clouds
502,Krasnorechenskiy,RU,44.6265,135.3532,62.01,100,100,4.88,light rain
503,Clyde River,CA,70.4692,-68.5914,44.55,67,60,4.45,broken clouds
504,Smithers,CA,54.7804,-127.1743,55.67,72,14,0.87,few clouds
505,Esperance,AU,-33.8667,121.9,55.24,80,5,22.53,clear sky
506,Grindavik,IS,63.8424,-22.4338,56.89,62,0,5.75,light rain
507,Albany,US,42.6001,-73.9662,82.15,81,94,5.14,overcast clouds
508,Bengkulu,ID,-3.8004,102.2655,75.52,91,100,6.8,overcast clouds
509,Baykit,RU,61.67,96.37,52.95,68,90,3.8,overcast clouds
510,Dzhebariki-Khaya,RU,62.2167,135.8,63.1,95,61,3.96,light rain
511,Pitimbu,BR,-7.4706,-34.8086,80.35,67,7,11.3,clear sky
512,Timra,SE,62.487,17.3257,60.51,55,75,16.11,broken clouds
513,Tuktoyaktuk,CA,69.4541,-133.0374,45.28,81,100,5.32,overcast clouds
514,Qaanaaq,GL,77.484,-69.3632,38.44,82,100,4.29,overcast clouds
515,Alofi,NU,-19.0595,-169.9187,76.62,79,100,9.8,overcast clouds
516,Kruisfontein,ZA,-34.0033,24.7314,59.88,67,3,13.62,clear sky
517,Tateyama,JP,34.9833,139.8667,80.62,89,100,14.5,overcast clouds
518,Ponta Do Sol,PT,32.6667,-17.1,82.0,64,12,2.13,few clouds
519,East London,ZA,-33.0153,27.9116,63.54,63,0,21.85,clear sky
520,Chokurdakh,RU,70.6333,147.9167,45.73,86,86,13.94,overcast clouds
521,Tasiilaq,GL,65.6145,-37.6368,50.16,94,100,7.23,overcast clouds
522,Marawi,PH,7.9986,124.2928,66.65,94,100,0.96,overcast clouds
523,Yaan,NG,7.3833,8.5667,77.94,81,99,4.72,overcast clouds
524,Mataura,NZ,-46.1927,168.8643,41.49,87,29,3.78,light rain
525,Smolenka,RU,52.1352,113.4974,50.07,93,100,0.0,overcast clouds
526,Georgetown,MY,5.4112,100.3354,82.89,81,20,0.0,heavy intensity rain
527,Halifax,CA,44.6453,-63.5724,75.42,74,45,3.44,scattered clouds
528,Rikitea,PF,-23.1203,-134.9692,68.85,53,76,17.83,broken clouds
529,Busselton,AU,-33.65,115.3333,53.1,73,80,16.49,broken clouds
530,Bredasdorp,ZA,-34.5322,20.0403,61.92,48,56,11.5,broken clouds
531,Vaini,TO,-21.2,-175.2,69.96,100,75,5.75,light rain
532,Bluff,NZ,-46.6,168.3333,41.81,78,66,16.33,broken clouds
533,Camocim,BR,-2.9022,-40.8411,90.97,46,16,11.36,few clouds
534,Mataura,NZ,-46.1927,168.8643,41.49,87,29,3.78,light rain
535,Punta Arenas,CL,-53.15,-70.9167,33.91,69,75,6.91,broken clouds
536,Punta Arenas,CL,-53.15,-70.9167,33.91,69,75,6.91,broken clouds
537,Provideniya,RU,64.3833,-173.3,46.63,98,100,5.06,overcast clouds
538,Bethel,US,41.3712,-73.414,81.93,85,100,5.53,overcast clouds
539,New Norfolk,AU,-42.7826,147.0587,53.1,76,100,1.99,overcast clouds
540,Bredasdorp,ZA,-34.5322,20.0403,61.92,48,56,11.5,broken clouds
541,Albany,US,42.6001,-73.9662,82.15,81,94,5.14,overcast clouds
542,Kruisfontein,ZA,-34.0033,24.7314,59.88,67,3,13.62,clear sky
543,Saint-Philippe,RE,-21.3585,55.7679,72.95,73,7,8.72,clear sky
544,Dryden,CA,49.7833,-92.7503,57.49,82,90,21.85,haze
545,Port Alfred,ZA,-33.5906,26.891,62.13,62,0,18.45,clear sky
546,Oktyabrskiy,RU,54.4815,53.471,93.54,15,70,9.57,broken clouds
547,Fortuna,US,40.5982,-124.1573,57.36,67,90,1.99,overcast clouds
548,Tuktoyaktuk,CA,69.4541,-133.0374,45.28,81,100,5.32,overcast clouds
549,Ponta Do Sol,PT,32.6667,-17.1,82.0,64,12,2.13,few clouds
550,Albany,US,42.6001,-73.9662,82.15,81,94,5.14,overcast clouds
551,Kodiak,US,57.79,-152.4072,48.92,70,100,3.38,overcast clouds
552,Abu Samrah,SY,35.3029,37.1841,100.76,11,0,7.16,clear sky
553,Dudinka,RU,69.4058,86.1778,48.22,92,100,18.72,overcast clouds
554,Jamestown,US,42.097,-79.2353,80.29,83,43,2.37,scattered clouds
555,Ostrovnoy,RU,68.0531,39.5131,49.53,89,100,9.48,overcast clouds
556,Kragujevac,RS,44.0167,20.9167,86.29,21,0,8.93,clear sky
557,Nikolskoye,RU,59.7035,30.7861,63.01,77,75,5.23,broken clouds
558,Gizo,SB,-8.103,156.8419,80.74,77,78,6.6,broken clouds
559,Hilo,US,19.7297,-155.09,72.63,92,17,1.01,few clouds
560,Atuona,PF,-9.8,-139.0333,76.86,73,23,18.12,few clouds
561,Longyearbyen,SJ,78.2186,15.6401,40.84,75,75,5.75,broken clouds
562,Ushuaia,AR,-54.8,-68.3,35.22,80,0,5.75,clear sky
563,Esso,RU,55.9333,158.7,50.61,91,43,1.77,scattered clouds
564,Barrow,US,71.2906,-156.7887,42.82,87,90,19.57,fog
565,Saint-Philippe,RE,-21.3585,55.7679,72.95,73,7,8.72,clear sky
566,Touros,BR,-5.1989,-35.4608,85.1,57,3,18.19,clear sky
567,Tautira,PF,-17.7333,-149.15,73.42,79,85,24.52,light rain
568,Hobart,AU,-42.8794,147.3294,53.46,74,75,1.01,broken clouds
569,Puerto Ayora,EC,-0.7393,-90.3518,71.56,96,95,5.01,light rain
570,Atuona,PF,-9.8,-139.0333,76.86,73,23,18.12,few clouds
571,Saint-Philippe,RE,-21.3585,55.7679,72.95,73,7,8.72,clear sky
572,Dikson,RU,73.5069,80.5464,42.82,95,100,20.42,overcast clouds
573,Nome,US,64.5011,-165.4064,48.27,81,75,13.8,broken clouds
574,Ushuaia,AR,-54.8,-68.3,35.22,80,0,5.75,clear sky
575,Ko Samui,TH,9.5357,99.9357,83.57,70,48,3.62,scattered clouds
576,Avera,US,33.194,-82.5271,83.91,58,10,2.68,clear sky
577,Vaini,TO,-21.2,-175.2,69.96,100,75,5.75,light rain
578,Mayskiy,RU,47.6931,40.1025,72.81,54,60,12.86,broken clouds
579,Albany,US,42.6001,-73.9662,82.15,81,94,5.14,overcast clouds
580,Sol-Iletsk,RU,51.1631,54.9918,92.89,16,26,8.41,scattered clouds
581,Bluff,NZ,-46.6,168.3333,41.81,78,66,16.33,broken clouds
582,Avarua,CK,-21.2078,-159.775,69.85,94,100,3.44,overcast clouds
583,Albany,US,42.6001,-73.9662,82.15,81,94,5.14,overcast clouds
584,Punta Arenas,CL,-53.15,-70.9167,33.91,69,75,6.91,broken clouds
585,Rikitea,PF,-23.1203,-134.9692,68.85,53,76,17.83,broken clouds
586,Rikitea,PF,-23.1203,-134.9692,68.85,53,76,17.83,broken clouds
587,San Patricio,US,28.017,-97.5169,89.69,57,14,11.68,few clouds
588,Mataura,NZ,-46.1927,168.8643,41.49,87,29,3.78,light rain
589,Rikitea,PF,-23.1203,-134.9692,68.85,53,76,17.83,broken clouds
590,Progreso,MX,21.2833,-89.6667,85.1,66,22,11.86,few clouds
591,Puerto Ayora,EC,-0.7393,-90.3518,71.56,96,95,5.01,light rain
592,Arraial Do Cabo,BR,-22.9661,-42.0278,82.36,61,0,10.36,clear sky
593,Qaanaaq,GL,77.484,-69.3632,38.44,82,100,4.29,overcast clouds
594,Hilo,US,19.7297,-155.09,72.63,92,17,1.01,few clouds
595,Houma,US,29.5958,-90.7195,90.0,76,1,0.0,clear sky
596,Khatanga,RU,71.9667,102.5,44.24,85,100,5.99,overcast clouds
597,Biu,NG,10.6129,12.1946,78.46,69,90,5.59,overcast clouds
598,Grindavik,IS,63.8424,-22.4338,56.89,62,0,5.75,light rain
599,Geraldton,AU,-28.7667,114.6,55.81,94,75,5.75,drizzle
600,Bambous Virieux,MU,-20.3428,57.7575,73.65,73,75,3.44,broken clouds
601,Dikson,RU,73.5069,80.5464,42.82,95,100,20.42,overcast clouds
602,Busselton,AU,-33.65,115.3333,53.1,73,80,16.49,broken clouds
603,Qaanaaq,GL,77.484,-69.3632,38.44,82,100,4.29,overcast clouds
604,Alice Springs,AU,-23.7,133.8833,56.75,24,0,4.61,clear sky
605,Port Elizabeth,ZA,-33.918,25.5701,62.89,63,0,18.41,clear sky
606,Butaritari,KI,3.0707,172.7902,79.79,70,100,18.19,overcast clouds
607,Aras,ES,42.5617,-2.356,92.71,29,0,1.14,clear sky
608,Cape Town,ZA,-33.9258,18.4232,61.21,65,40,5.99,scattered clouds
609,Arraial Do Cabo,BR,-22.9661,-42.0278,82.36,61,0,10.36,clear sky
610,Ushtobe,KZ,45.2514,77.9838,77.7,25,1,21.9,clear sky
611,Hermanus,ZA,-34.4187,19.2345,59.81,60,4,10.29,clear sky
612,Mataura,NZ,-46.1927,168.8643,41.49,87,29,3.78,light rain
613,Punta Arenas,CL,-53.15,-70.9167,33.91,69,75,6.91,broken clouds
614,Victoria,HK,22.2855,114.1577,86.32,80,100,1.99,overcast clouds
615,Camacha,PT,33.0833,-16.3333,72.82,57,40,10.36,scattered clouds
616,Albany,US,42.6001,-73.9662,82.15,81,94,5.14,overcast clouds
617,Rikitea,PF,-23.1203,-134.9692,68.85,53,76,17.83,broken clouds
618,Bambous Virieux,MU,-20.3428,57.7575,73.65,73,75,3.44,broken clouds
619,Ondjiva,AO,-17.0667,15.7333,89.15,10,3,6.08,clear sky
620,Lagoa,PT,39.05,-27.9833,73.08,76,0,10.36,clear sky
621,Bluff,NZ,-46.6,168.3333,41.81,78,66,16.33,broken clouds
622,Akdepe,TM,42.0551,59.3788,91.4,18,3,19.8,clear sky
623,Sampit,ID,-2.5333,112.95,73.27,97,93,2.13,overcast clouds
624,Albany,US,42.6001,-73.9662,82.15,81,94,5.14,overcast clouds
625,Punta Arenas,CL,-53.15,-70.9167,33.91,69,75,6.91,broken clouds
626,Iskilip,TR,40.7353,34.4739,80.56,35,13,10.42,few clouds
627,Guerrero Negro,MX,27.9769,-114.0611,69.17,73,73,9.98,broken clouds
628,Francisco Sa,BR,-16.4758,-43.4883,83.14,27,18,9.35,few clouds
629,Upernavik,GL,72.7868,-56.1549,40.95,86,89,10.94,overcast clouds
630,Serenje,ZM,-13.2325,30.2352,78.98,20,22,10.31,few clouds
631,Walla Walla,US,46.0646,-118.343,63.48,68,90,4.0,overcast clouds
632,Puerto Ayora,EC,-0.7393,-90.3518,71.56,96,95,5.01,light rain
633,Pimentel,PE,-6.8367,-79.9342,64.99,79,100,5.99,overcast clouds
634,Qaanaaq,GL,77.484,-69.3632,38.44,82,100,4.29,overcast clouds
635,Atuona,PF,-9.8,-139.0333,76.86,73,23,18.12,few clouds
636,Castro,BR,-24.7911,-50.0119,78.69,30,0,4.88,clear sky
637,Zhangjiakou,CN,40.81,114.8794,67.05,65,1,5.75,clear sky
638,Mangai,CD,-4.05,19.5333,82.67,55,100,3.78,overcast clouds
639,Ushuaia,AR,-54.8,-68.3,35.22,80,0,5.75,clear sky
640,Lavrentiya,RU,65.5833,-171.0,44.69,89,12,7.67,few clouds
641,Rikitea,PF,-23.1203,-134.9692,68.85,53,76,17.83,broken clouds
642,Jamestown,US,42.097,-79.2353,80.29,83,43,2.37,scattered clouds
643,Hermanus,ZA,-34.4187,19.2345,59.81,60,4,10.29,clear sky
644,Mar Del Plata,AR,-38.0023,-57.5575,48.22,81,75,11.5,light rain
645,Kodiak,US,57.79,-152.4072,48.92,70,100,3.38,overcast clouds
646,Punta Arenas,CL,-53.15,-70.9167,33.91,69,75,6.91,broken clouds
647,Hobart,AU,-42.8794,147.3294,53.46,74,75,1.01,broken clouds
648,Bluff,NZ,-46.6,168.3333,41.81,78,66,16.33,broken clouds
649,Deputatskiy,RU,69.3,139.9,57.43,65,100,4.18,overcast clouds
650,Ushuaia,AR,-54.8,-68.3,35.22,80,0,5.75,clear sky
651,Tokur,RU,53.1333,132.9,57.09,83,42,2.84,scattered clouds
652,Juneau,US,58.3019,-134.4197,53.22,98,100,2.59,light rain
653,Ushuaia,AR,-54.8,-68.3,35.22,80,0,5.75,clear sky
654,New Norfolk,AU,-42.7826,147.0587,53.1,76,100,1.99,overcast clouds
655,Cape Town,ZA,-33.9258,18.4232,61.21,65,40,5.99,scattered clouds
656,Misratah,LY,32.3754,15.0925,85.69,54,0,13.02,clear sky
657,Ankazoabo,MG,-22.2833,44.5167,80.06,25,0,7.18,clear sky
658,Jamestown,US,42.097,-79.2353,80.29,83,43,2.37,scattered clouds
659,Nikolskoye,RU,59.7035,30.7861,63.01,77,75,5.23,broken clouds
660,Wageningen,NL,51.9667,5.6667,79.25,69,90,4.61,overcast clouds
661,Barrow,US,71.2906,-156.7887,42.82,87,90,19.57,fog
662,Punta Arenas,CL,-53.15,-70.9167,33.91,69,75,6.91,broken clouds
663,Puerto Ayora,EC,-0.7393,-90.3518,71.56,96,95,5.01,light rain
664,Hearst,CA,49.6835,-83.6665,81.63,47,37,13.69,scattered clouds
665,Cayenne,GF,4.9333,-52.3333,87.84,76,40,4.0,scattered clouds
666,Cherskiy,RU,68.75,161.3,57.58,60,100,7.67,overcast clouds
667,Albany,US,42.6001,-73.9662,82.15,81,94,5.14,overcast clouds
668,Richards Bay,ZA,-28.783,32.0377,71.04,76,16,13.06,few clouds
669,Carnarvon,AU,-24.8667,113.6333,64.83,70,0,23.47,clear sky
670,Hermanus,ZA,-34.4187,19.2345,59.81,60,4,10.29,clear sky
671,Yellowknife,CA,62.456,-114.3525,46.92,81,20,6.91,few clouds
672,Mahebourg,MU,-20.4081,57.7,72.25,73,11,5.01,few clouds
673,Port Alfred,ZA,-33.5906,26.891,62.13,62,0,18.45,clear sky
674,Busselton,AU,-33.65,115.3333,53.1,73,80,16.49,broken clouds
675,Cherskiy,RU,68.75,161.3,57.58,60,100,7.67,overcast clouds
676,Vaini,TO,-21.2,-175.2,69.96,100,75,5.75,light rain
677,Ilulissat,GL,69.2167,-51.1,45.99,62,82,3.36,broken clouds
678,Rimouski,CA,48.4488,-68.524,66.04,68,99,5.73,overcast clouds
679,Grindavik,IS,63.8424,-22.4338,56.89,62,0,5.75,light rain
680,Tura,IN,25.5198,90.2201,74.26,96,87,4.23,overcast clouds
681,Punta Arenas,CL,-53.15,-70.9167,33.91,69,75,6.91,broken clouds
682,Albany,US,42.6001,-73.9662,82.15,81,94,5.14,overcast clouds
683,Mar Del Plata,AR,-38.0023,-57.5575,48.22,81,75,11.5,light rain
684,Busselton,AU,-33.65,115.3333,53.1,73,80,16.49,broken clouds
685,Ust-Kulom,RU,61.6864,53.6902,72.93,65,100,2.13,overcast clouds
686,Airai,TL,-8.9266,125.4092,55.42,71,100,3.09,overcast clouds
687,Albany,US,42.6001,-73.9662,82.15,81,94,5.14,overcast clouds
688,Taltal,CL,-25.4,-70.4833,65.59,63,2,4.99,clear sky
689,Dikson,RU,73.5069,80.5464,42.82,95,100,20.42,overcast clouds
690,Saskylakh,RU,71.9167,114.0833,43.03,92,100,9.69,overcast clouds
691,Vao,NC,-22.6667,167.4833,68.11,73,71,16.22,broken clouds
692,Mataura,NZ,-46.1927,168.8643,41.49,87,29,3.78,light rain
693,San Luis,AR,-33.295,-66.3356,64.33,33,4,19.55,clear sky
694,Narsaq,GL,60.9167,-46.05,57.42,52,91,13.65,overcast clouds
695,Zella-Mehlis,DE,50.65,10.65,73.27,53,71,4.41,broken clouds
696,Tasiilaq,GL,65.6145,-37.6368,50.16,94,100,7.23,overcast clouds
697,Ilulissat,GL,69.2167,-51.1,45.99,62,82,3.36,broken clouds
698,Kahului,US,20.8947,-156.47,76.26,94,5,8.66,clear sky
699,Gizo,SB,-8.103,156.8419,80.74,77,78,6.6,broken clouds
700,Qaanaaq,GL,77.484,-69.3632,38.44,82,100,4.29,overcast clouds
701,New Norfolk,AU,-42.7826,147.0587,53.1,76,100,1.99,overcast clouds
702,Mataura,NZ,-46.1927,168.8643,41.49,87,29,3.78,light rain
703,Vaini,TO,-21.2,-175.2,69.96,100,75,5.75,light rain
704,Kulhudhuffushi,MV,6.6221,73.07,82.44,76,86,12.64,overcast clouds
705,Collierville,US,35.042,-89.6645,84.7,83,79,1.99,broken clouds
706,Dubbo,AU,-32.25,148.6167,44.73,87,59,5.75,broken clouds
707,Barrow,US,71.2906,-156.7887,42.82,87,90,19.57,fog
708,Rikitea,PF,-23.1203,-134.9692,68.85,53,76,17.83,broken clouds
709,Adelaide,AU,-34.9333,138.6,54.3,87,20,1.01,few clouds
710,Micomeseng,GQ,2.1462,10.6164,75.02,89,86,4.41,moderate rain
711,Fortuna,US,40.5982,-124.1573,57.36,67,90,1.99,overcast clouds
712,Merauke,ID,-8.4667,140.3333,77.27,90,30,13.87,scattered clouds
713,Tasiilaq,GL,65.6145,-37.6368,50.16,94,100,7.23,overcast clouds
714,Tautira,PF,-17.7333,-149.15,73.42,79,85,24.52,light rain
715,Saint-Philippe,RE,-21.3585,55.7679,72.95,73,7,8.72,clear sky
716,Dickinson,US,29.4608,-95.0513,90.99,67,1,1.01,clear sky
717,Albany,US,42.6001,-73.9662,82.15,81,94,5.14,overcast clouds
718,Rikitea,PF,-23.1203,-134.9692,68.85,53,76,17.83,broken clouds
719,Rikitea,PF,-23.1203,-134.9692,68.85,53,76,17.83,broken clouds
720,Goba,ET,7.0167,39.9833,55.6,81,100,3.2,light rain
721,Isangel,VU,-19.55,169.2667,70.2,85,5,7.83,clear sky
722,Punta Arenas,CL,-53.15,-70.9167,33.91,69,75,6.91,broken clouds
723,Busselton,AU,-33.65,115.3333,53.1,73,80,16.49,broken clouds
724,Albany,US,42.6001,-73.9662,82.15,81,94,5.14,overcast clouds
725,Jamestown,US,42.097,-79.2353,80.29,83,43,2.37,scattered clouds
726,Rikitea,PF,-23.1203,-134.9692,68.85,53,76,17.83,broken clouds
727,Ushuaia,AR,-54.8,-68.3,35.22,80,0,5.75,clear sky
728,Punta Arenas,CL,-53.15,-70.9167,33.91,69,75,6.91,broken clouds
729,Mahebourg,MU,-20.4081,57.7,72.25,73,11,5.01,few clouds
730,Mataura,NZ,-46.1927,168.8643,41.49,87,29,3.78,light rain
731,Oyama,JP,36.3,139.8,82.65,83,100,4.83,light rain
732,Teapa,MX,17.55,-92.95,79.09,75,100,2.08,overcast clouds
733,Clyde River,CA,70.4692,-68.5914,44.55,67,60,4.45,broken clouds
734,Ambilobe,MG,-13.2,49.05,76.91,59,0,2.89,clear sky
735,College,US,64.8569,-147.8028,49.59,96,90,1.99,light rain
736,Mataura,NZ,-46.1927,168.8643,41.49,87,29,3.78,light rain
737,Ushuaia,AR,-54.8,-68.3,35.22,80,0,5.75,clear sky
738,Vaini,TO,-21.2,-175.2,69.96,100,75,5.75,light rain
739,Kodiak,US,57.79,-152.4072,48.92,70,100,3.38,overcast clouds
740,Passo Fundo,BR,-28.2628,-52.4067,77.58,46,2,10.56,clear sky
741,Nikolskoye,RU,59.7035,30.7861,63.01,77,75,5.23,broken clouds
742,Karoi,ZW,-16.8099,29.6925,77.88,27,37,9.37,scattered clouds
743,Jaque,PA,7.5175,-78.1703,82.38,75,82,4.94,light rain
744,Cherskiy,RU,68.75,161.3,57.58,60,100,7.67,overcast clouds
745,Bambous Virieux,MU,-20.3428,57.7575,73.65,73,75,3.44,broken clouds
746,Nikolskoye,RU,59.7035,30.7861,63.01,77,75,5.23,broken clouds
747,Alta Floresta,BR,-9.8756,-56.0861,95.99,17,37,5.19,scattered clouds
748,Hithadhoo,MV,-0.6,73.0833,83.37,71,1,12.82,clear sky
749,Kapaa,US,22.0752,-159.319,75.52,81,90,9.22,light rain
750,Abay,KZ,49.6311,72.8539,70.18,38,0,12.44,clear sky
751,Mataura,NZ,-46.1927,168.8643,41.49,87,29,3.78,light rain
752,Tuktoyaktuk,CA,69.4541,-133.0374,45.28,81,100,5.32,overcast clouds
753,Butaritari,KI,3.0707,172.7902,79.79,70,100,18.19,overcast clouds
754,Bethel,US,41.3712,-73.414,81.93,85,100,5.53,overcast clouds
755,Mahebourg,MU,-20.4081,57.7,72.25,73,11,5.01,few clouds
756,Mount Isa,AU,-20.7333,139.5,60.57,44,0,4.61,clear sky
757,Hervey Bay,AU,-25.2986,152.8535,60.04,73,0,1.52,clear sky
758,Lompoc,US,34.6391,-120.4579,65.08,82,90,0.0,overcast clouds
759,Karratha,AU,-20.7377,116.8463,72.28,62,0,7.83,clear sky
760,Mar Del Plata,AR,-38.0023,-57.5575,48.22,81,75,11.5,light rain
761,Provideniya,RU,64.3833,-173.3,46.63,98,100,5.06,overcast clouds
762,Busselton,AU,-33.65,115.3333,53.1,73,80,16.49,broken clouds
763,Termini Imerese,IT,37.9837,13.6956,90.52,59,0,7.92,clear sky
764,Cherskiy,RU,68.75,161.3,57.58,60,100,7.67,overcast clouds
765,Saldanha,ZA,-33.0117,17.9442,56.71,59,1,9.13,clear sky
766,Ushuaia,AR,-54.8,-68.3,35.22,80,0,5.75,clear sky
767,Berlevag,NO,70.8578,29.0864,46.2,80,100,14.56,overcast clouds
768,Mataura,NZ,-46.1927,168.8643,41.49,87,29,3.78,light rain
769,Tasiilaq,GL,65.6145,-37.6368,50.16,94,100,7.23,overcast clouds
770,Palmas Bellas,PA,9.2319,-80.0867,81.39,83,89,4.38,overcast clouds
771,Provideniya,RU,64.3833,-173.3,46.63,98,100,5.06,overcast clouds
772,Vaini,TO,-21.2,-175.2,69.96,100,75,5.75,light rain
773,Rikitea,PF,-23.1203,-134.9692,68.85,53,76,17.83,broken clouds
774,Khandyga,RU,62.6667,135.6,61.45,97,61,4.0,light rain
775,Skibbereen,IE,51.55,-9.2667,69.6,76,13,15.73,few clouds
776,Butaritari,KI,3.0707,172.7902,79.79,70,100,18.19,overcast clouds
777,Hobart,AU,-42.8794,147.3294,53.46,74,75,1.01,broken clouds
778,Mataura,NZ,-46.1927,168.8643,41.49,87,29,3.78,light rain
779,Port Alfred,ZA,-33.5906,26.891,62.13,62,0,18.45,clear sky
780,San Lorenzo,PY,-25.3333,-57.5333,93.24,17,20,12.66,few clouds
781,Hilo,US,19.7297,-155.09,72.63,92,17,1.01,few clouds
782,Busselton,AU,-33.65,115.3333,53.1,73,80,16.49,broken clouds
783,Arraial Do Cabo,BR,-22.9661,-42.0278,82.36,61,0,10.36,clear sky
784,Port Alfred,ZA,-33.5906,26.891,62.13,62,0,18.45,clear sky
785,Hilo,US,19.7297,-155.09,72.63,92,17,1.01,few clouds
786,Mataura,NZ,-46.1927,168.8643,41.49,87,29,3.78,light rain
787,Saint-Philippe,RE,-21.3585,55.7679,72.95,73,7,8.72,clear sky
788,Roald,NO,62.5833,6.1333,62.17,67,20,11.5,few clouds
789,Kapaa,US,22.0752,-159.319,75.52,81,90,9.22,light rain
790,Punta Arenas,CL,-53.15,-70.9167,33.91,69,75,6.91,broken clouds
791,Asau,RO,46.4333,26.4,79.39,47,100,3.31,overcast clouds
792,San Agustin,MX,20.5333,-103.4667,69.51,88,59,3.15,broken clouds
793,Bagdarin,RU,54.4333,113.6,50.76,91,100,3.56,overcast clouds
794,Kodiak,US,57.79,-152.4072,48.92,70,100,3.38,overcast clouds
795,Cherskiy,RU,68.75,161.3,57.58,60,100,7.67,overcast clouds
796,Hithadhoo,MV,-0.6,73.0833,83.37,71,1,12.82,clear sky
797,Sokoni,TZ,-6.4333,39.55,77.27,79,0,12.97,clear sky
798,Rikitea,PF,-23.1203,-134.9692,68.85,53,76,17.83,broken clouds
799,Cabedelo,BR,-6.9811,-34.8339,80.29,69,2,13.49,clear sky
800,Hilo,US,19.7297,-155.09,72.63,92,17,1.01,few clouds
801,Ribeira Grande,PT,38.5167,-28.7,77.4,73,20,9.22,few clouds
802,Ankola,IN,14.6667,74.3,78.37,85,20,3.6,few clouds
803,Ushuaia,AR,-54.8,-68.3,35.22,80,0,5.75,clear sky
804,Victoria,HK,22.2855,114.1577,86.32,80,100,1.99,overcast clouds
805,Puerto Ayora,EC,-0.7393,-90.3518,71.56,96,95,5.01,light rain
806,Albany,US,42.6001,-73.9662,82.15,81,94,5.14,overcast clouds
807,Rikitea,PF,-23.1203,-134.9692,68.85,53,76,17.83,broken clouds
808,Sirsi,IN,14.6167,74.85,69.93,93,56,4.94,broken clouds
809,Ushuaia,AR,-54.8,-68.3,35.22,80,0,5.75,clear sky
810,Georgetown,MY,5.4112,100.3354,82.89,81,20,0.0,heavy intensity rain
811,Carnarvon,AU,-24.8667,113.6333,64.83,70,0,23.47,clear sky
812,Shingu,JP,33.7333,135.9833,79.92,93,97,4.18,overcast clouds
813,Cape Town,ZA,-33.9258,18.4232,61.21,65,40,5.99,scattered clouds
814,Nanortalik,GL,60.1432,-45.2371,48.34,74,87,5.17,overcast clouds
815,Maniitsoq,GL,65.4167,-52.9,46.71,83,69,9.71,broken clouds
816,Vaini,TO,-21.2,-175.2,69.96,100,75,5.75,light rain
817,Gediz,TR,39.0417,29.41,90.39,12,0,9.26,clear sky
818,Albany,US,42.6001,-73.9662,82.15,81,94,5.14,overcast clouds
819,Port Hedland,AU,-20.3167,118.5667,66.25,82,0,6.91,clear sky
820,Inirida,CO,3.8653,-67.9239,88.72,56,11,2.42,few clouds
821,San Jose,US,37.3394,-121.895,63.01,84,40,1.01,smoke
822,Yellowknife,CA,62.456,-114.3525,46.92,81,20,6.91,few clouds
823,Katherine,AU,-14.4667,132.2667,62.92,59,0,3.44,clear sky
824,Snoghoj,DK,55.5225,9.7213,70.45,60,54,2.93,broken clouds
825,Vardo,NO,70.3705,31.1107,46.15,79,100,16.82,overcast clouds
826,Beringovskiy,RU,63.05,179.3167,49.41,88,100,4.41,overcast clouds
827,Yumen,CN,40.2833,97.2,76.5,17,100,13.29,overcast clouds
828,Yulara,AU,-25.2406,130.9889,65.8,27,0,4.61,clear sky
829,Mahibadhoo,MV,3.7833,72.9667,82.94,69,6,9.24,clear sky
830,Lang Suan,TH,9.9456,99.0785,77.5,90,41,4.72,scattered clouds
831,Wau,SS,7.7029,27.9953,82.04,69,88,3.8,overcast clouds
832,Waspan,NI,14.7419,-83.9717,79.95,87,100,1.1,overcast clouds
833,Rikitea,PF,-23.1203,-134.9692,68.85,53,76,17.83,broken clouds
834,Paamiut,GL,61.994,-49.6678,50.94,62,98,5.1,overcast clouds
835,Yellowknife,CA,62.456,-114.3525,46.92,81,20,6.91,few clouds
836,Mehran,IR,33.1222,46.1646,105.69,9,0,17.09,clear sky
837,Mataura,NZ,-46.1927,168.8643,41.49,87,29,3.78,light rain
838,Narrabri,AU,-30.3167,149.7833,59.7,55,66,4.54,broken clouds
839,Rikitea,PF,-23.1203,-134.9692,68.85,53,76,17.83,broken clouds
840,Tabou,CI,4.423,-7.3528,77.67,82,72,10.07,light rain
841,Mataura,NZ,-46.1927,168.8643,41.49,87,29,3.78,light rain
842,Belmonte,BR,-15.8631,-38.8828,78.33,60,5,7.45,clear sky
843,Benguela,AO,-12.5763,13.4055,74.37,74,46,11.14,scattered clouds
844,Pasni,PK,25.2631,63.471,78.93,84,1,9.19,clear sky
845,Gemena,CD,3.25,19.7667,71.49,98,100,2.73,overcast clouds
846,Rayagada,IN,19.1667,83.4167,77.38,94,49,3.87,scattered clouds
847,Pecos,US,31.4229,-103.4932,81.3,78,1,0.0,clear sky
848,Chuy,UY,-33.6971,-53.4616,59.47,52,82,9.19,broken clouds
849,Progreso,MX,21.2833,-89.6667,85.1,66,22,11.86,few clouds
850,Port Elizabeth,ZA,-33.918,25.5701,62.89,63,0,18.41,clear sky
851,Kapaa,US,22.0752,-159.319,75.52,81,90,9.22,light rain
852,Rudnogorsk,RU,57.2639,103.7519,59.16,60,93,4.79,overcast clouds
853,Kaduy,RU,59.2,37.15,69.84,52,4,1.32,clear sky
854,Punta Arenas,CL,-53.15,-70.9167,33.91,69,75,6.91,broken clouds
855,Jutai,BR,-5.1833,-68.9,88.48,50,64,1.52,broken clouds
856,Bambous Virieux,MU,-20.3428,57.7575,73.65,73,75,3.44,broken clouds
857,Mataura,NZ,-46.1927,168.8643,41.49,87,29,3.78,light rain
858,Pierre,US,44.3683,-100.351,67.05,76,0,8.99,clear sky
859,Buchanan,LR,5.8808,-10.0467,85.96,79,59,10.45,light rain
860,Taphan Hin,TH,16.2209,100.4198,83.34,70,39,4.34,scattered clouds
861,Yeppoon,AU,-23.1333,150.7333,58.78,85,0,3.22,clear sky
862,Geraldton,AU,-28.7667,114.6,55.81,94,75,5.75,drizzle
863,Ushuaia,AR,-54.8,-68.3,35.22,80,0,5.75,clear sky
864,Busselton,AU,-33.65,115.3333,53.1,73,80,16.49,broken clouds
865,Rikitea,PF,-23.1203,-134.9692,68.85,53,76,17.83,broken clouds
866,Ust-Nera,RU,64.5667,143.2,60.39,98,100,5.35,moderate rain
867,Marzuq,YE,14.4,46.4667,88.5,35,74,6.46,broken clouds
868,Qaanaaq,GL,77.484,-69.3632,38.44,82,100,4.29,overcast clouds
869,Victoria,HK,22.2855,114.1577,86.32,80,100,1.99,overcast clouds
870,Gravdal,NO,68.1214,13.5031,48.36,68,93,15.68,overcast clouds
871,Pitimbu,BR,-7.4706,-34.8086,80.35,67,7,11.3,clear sky
872,Mataura,NZ,-46.1927,168.8643,41.49,87,29,3.78,light rain
873,Bandarbeyla,SO,9.4942,50.8122,78.04,82,11,32.46,few clouds
874,Hobart,AU,-42.8794,147.3294,53.46,74,75,1.01,broken clouds
875,Aklavik,CA,68.2191,-135.0107,48.92,75,99,9.51,overcast clouds
876,Punta Arenas,CL,-53.15,-70.9167,33.91,69,75,6.91,broken clouds
877,Arraial Do Cabo,BR,-22.9661,-42.0278,82.36,61,0,10.36,clear sky
878,Beloha,MG,-25.1667,45.05,68.45,72,54,12.93,broken clouds
879,Mataura,NZ,-46.1927,168.8643,41.49,87,29,3.78,light rain
880,Ulladulla,AU,-35.35,150.4667,52.88,77,0,4.27,clear sky
881,Biltine,TD,14.5333,20.9167,95.31,28,11,1.39,few clouds
882,Sayyan,YE,15.1718,44.3244,72.12,34,95,11.52,overcast clouds
883,Hobart,AU,-42.8794,147.3294,53.46,74,75,1.01,broken clouds
884,Kargil,IN,34.5667,76.1,64.04,41,100,7.67,overcast clouds
885,Itarema,BR,-2.9248,-39.9167,88.99,44,6,19.28,clear sky
886,Mataura,NZ,-46.1927,168.8643,41.49,87,29,3.78,light rain
887,Margate,GB,51.3813,1.3862,67.86,83,100,8.63,overcast clouds
888,Roma,US,43.2128,-75.4557,80.74,76,1,4.61,clear sky
889,Longyearbyen,SJ,78.2186,15.6401,40.84,75,75,5.75,broken clouds
890,Poya,NC,-21.35,165.15,68.04,88,11,3.38,few clouds
891,Richton Park,US,41.4845,-87.7034,84.67,68,1,8.05,clear sky
892,Kavieng,PG,-2.5744,150.7967,81.72,80,100,15.99,overcast clouds
893,Qaanaaq,GL,77.484,-69.3632,38.44,82,100,4.29,overcast clouds
894,Busselton,AU,-33.65,115.3333,53.1,73,80,16.49,broken clouds
895,Cape Town,ZA,-33.9258,18.4232,61.21,65,40,5.99,scattered clouds
896,Ayorou,NE,14.7308,0.9174,97.45,35,100,6.51,overcast clouds
897,Hobart,AU,-42.8794,147.3294,53.46,74,75,1.01,broken clouds
898,Mataura,NZ,-46.1927,168.8643,41.49,87,29,3.78,light rain
899,Oistins,BB,13.0667,-59.5333,83.25,74,37,16.15,scattered clouds
900,Anadyr,RU,64.75,177.4833,41.5,93,0,0.0,clear sky
901,Hilo,US,19.7297,-155.09,72.63,92,17,1.01,few clouds
902,Qaanaaq,GL,77.484,-69.3632,38.44,82,100,4.29,overcast clouds
903,Butaritari,KI,3.0707,172.7902,79.79,70,100,18.19,overcast clouds
904,Hilo,US,19.7297,-155.09,72.63,92,17,1.01,few clouds
905,Pangnirtung,CA,66.1451,-65.7125,42.8,100,90,8.05,overcast clouds
906,Luderitz,NA,-26.6481,15.1594,63.03,48,0,31.59,clear sky
907,Jiayuguan,CN,39.8167,98.3,74.91,19,85,11.39,overcast clouds
908,Saint George,US,37.1041,-113.5841,79.54,42,0,3.0,clear sky
909,San Andres,CO,12.5847,-81.7006,82.36,74,100,11.92,overcast clouds
910,Hermanus,ZA,-34.4187,19.2345,59.81,60,4,10.29,clear sky
911,Iqaluit,CA,63.7506,-68.5145,49.1,63,14,5.86,few clouds
912,Bluff,NZ,-46.6,168.3333,41.81,78,66,16.33,broken clouds
913,Hermanus,ZA,-34.4187,19.2345,59.81,60,4,10.29,clear sky
914,Bredasdorp,ZA,-34.5322,20.0403,61.92,48,56,11.5,broken clouds
915,Tomatlan,MX,19.9333,-105.25,81.59,89,45,1.63,scattered clouds
916,Georgetown,MY,5.4112,100.3354,82.89,81,20,0.0,heavy intensity rain
917,Saint-Philippe,RE,-21.3585,55.7679,72.95,73,7,8.72,clear sky
918,Port Alfred,ZA,-33.5906,26.891,62.13,62,0,18.45,clear sky
919,Mataura,NZ,-46.1927,168.8643,41.49,87,29,3.78,light rain
920,Plettenberg Bay,ZA,-34.0527,23.3716,56.97,71,47,8.97,scattered clouds
921,Bredasdorp,ZA,-34.5322,20.0403,61.92,48,56,11.5,broken clouds
922,Ponta Do Sol,PT,32.6667,-17.1,82.0,64,12,2.13,few clouds
923,Tasiilaq,GL,65.6145,-37.6368,50.16,94,100,7.23,overcast clouds
924,Bluff,NZ,-46.6,168.3333,41.81,78,66,16.33,broken clouds
925,East London,ZA,-33.0153,27.9116,63.54,63,0,21.85,clear sky
926,Soyo,AO,-6.1349,12.3689,75.76,72,20,11.36,few clouds
927,Carnarvon,AU,-24.8667,113.6333,64.83,70,0,23.47,clear sky
928,Preobrazheniye,RU,42.9019,133.9064,68.27,98,100,13.69,moderate rain
929,Ozu,JP,33.5,132.55,75.07,93,100,7.56,overcast clouds
930,Cavalcante,BR,-13.7975,-47.4583,82.94,31,5,8.68,clear sky
931,Ushuaia,AR,-54.8,-68.3,35.22,80,0,5.75,clear sky
932,Birao,CF,10.2849,22.7882,81.88,68,23,4.54,few clouds
933,Yellowknife,CA,62.456,-114.3525,46.92,81,20,6.91,few clouds
934,Caxito,AO,-8.5785,13.6643,75.85,45,2,11.21,clear sky
935,Esso,RU,55.9333,158.7,50.61,91,43,1.77,scattered clouds
936,Taltal,CL,-25.4,-70.4833,65.59,63,2,4.99,clear sky
937,Kamaishi,JP,39.2667,141.8833,72.46,98,98,2.53,overcast clouds
938,Marathon,US,44.9,-89.7668,74.73,86,90,1.01,overcast clouds
939,Ilulissat,GL,69.2167,-51.1,45.99,62,82,3.36,broken clouds
940,Arraial Do Cabo,BR,-22.9661,-42.0278,82.36,61,0,10.36,clear sky
941,Gannan,CN,47.9147,123.5031,61.88,91,100,5.08,overcast clouds
942,Hermanus,ZA,-34.4187,19.2345,59.81,60,4,10.29,clear sky
943,Sao Joao Da Barra,BR,-21.6403,-41.0511,75.88,64,1,14.7,clear sky
944,Puerto Ayora,EC,-0.7393,-90.3518,71.56,96,95,5.01,light rain
945,Kargasok,RU,59.0556,80.8572,50.58,94,100,9.86,overcast clouds
946,Kodiak,US,57.79,-152.4072,48.92,70,100,3.38,overcast clouds
947,East London,ZA,-33.0153,27.9116,63.54,63,0,21.85,clear sky
948,Kapaa,US,22.0752,-159.319,75.52,81,90,9.22,light rain
949,Aswan,EG,24.0934,32.907,105.17,10,0,15.32,clear sky
950,Bandarbeyla,SO,9.4942,50.8122,78.04,82,11,32.46,few clouds
951,Rio Gallegos,AR,-51.6226,-69.2181,36.57,55,4,8.93,clear sky
952,Chilliwack,CA,49.1747,-121.9443,61.93,93,83,0.0,broken clouds
953,Vaini,TO,-21.2,-175.2,69.96,100,75,5.75,light rain
954,Kawalu,ID,-7.3817,108.2082,70.27,98,100,0.63,overcast clouds
955,Sept-Iles,CA,50.2001,-66.3821,67.24,59,75,3.0,broken clouds
956,Sitka,US,57.0531,-135.33,55.29,82,90,5.75,light rain
957,Hithadhoo,MV,-0.6,73.0833,83.37,71,1,12.82,clear sky
958,Humboldt,US,40.6665,-123.9178,48.56,77,39,1.34,scattered clouds
959,Sambava,MG,-14.2667,50.1667,72.9,76,0,13.18,clear sky
960,Yenagoa,NG,4.9247,6.2642,81.3,75,91,7.47,moderate rain
961,Butaritari,KI,3.0707,172.7902,79.79,70,100,18.19,overcast clouds
962,Punta Arenas,CL,-53.15,-70.9167,33.91,69,75,6.91,broken clouds
963,Tuktoyaktuk,CA,69.4541,-133.0374,45.28,81,100,5.32,overcast clouds
964,Tolaga Bay,NZ,-38.3667,178.3,47.3,64,58,3.74,broken clouds
965,Albany,US,42.6001,-73.9662,82.15,81,94,5.14,overcast clouds
966,Lugovoy,KZ,42.9472,72.7644,78.12,27,71,6.08,broken clouds
967,Cape Town,ZA,-33.9258,18.4232,61.21,65,40,5.99,scattered clouds
968,Dunedin,NZ,-45.8742,170.5036,46.8,63,78,14.0,broken clouds
969,Bilma,NE,18.6853,12.9164,105.1,14,9,4.29,clear sky
970,Carutapera,BR,-1.195,-46.02,87.8,55,29,10.74,scattered clouds
971,Andenes,NO,69.3143,16.1194,46.38,76,75,13.8,broken clouds
972,Ushuaia,AR,-54.8,-68.3,35.22,80,0,5.75,clear sky
973,Asau,RO,46.4333,26.4,79.39,47,100,3.31,overcast clouds
974,Fort Nelson,CA,58.8053,-122.7002,49.78,80,94,5.93,overcast clouds
975,Pisco,PE,-13.7,-76.2167,62.02,84,68,2.93,broken clouds
976,Saint George,US,37.1041,-113.5841,79.54,42,0,3.0,clear sky
977,Albany,US,42.6001,-73.9662,82.15,81,94,5.14,overcast clouds
978,Airai,TL,-8.9266,125.4092,55.42,71,100,3.09,overcast clouds
979,Atasu,KZ,48.6814,71.6433,77.02,31,0,14.07,clear sky
980,Georgetown,MY,5.4112,100.3354,82.89,81,20,0.0,heavy intensity rain
981,Yellowknife,CA,62.456,-114.3525,46.92,81,20,6.91,few clouds
982,Pevek,RU,69.7008,170.3133,41.2,96,100,4.83,moderate rain
983,Egyek,HU,47.6333,20.9,80.82,25,14,6.93,few clouds
984,Ushuaia,AR,-54.8,-68.3,35.22,80,0,5.75,clear sky
985,Nishihara,JP,26.1842,127.7558,81.68,83,20,6.91,few clouds
986,Kapaa,US,22.0752,-159.319,75.52,81,90,9.22,light rain
987,Agadez,NE,19.75,10.25,105.12,9,2,15.5,clear sky
988,Ushuaia,AR,-54.8,-68.3,35.22,80,0,5.75,clear sky
989,Bredasdorp,ZA,-34.5322,20.0403,61.92,48,56,11.5,broken clouds
990,Yar-Sale,RU,66.8333,70.8333,64.49,63,14,12.41,few clouds
991,Alice Springs,AU,-23.7,133.8833,56.75,24,0,4.61,clear sky
992,Talnakh,RU,69.4865,88.3972,49.15,83,100,13.76,light rain
993,Vaini,TO,-21.2,-175.2,69.96,100,75,5.75,light rain
994,Puerto Ayora,EC,-0.7393,-90.3518,71.56,96,95,5.01,light rain
995,Izberbash,RU,42.5696,47.8645,82.45,62,26,2.75,scattered clouds
996,Mikuni,JP,36.2171,136.1519,74.46,92,100,10.6,overcast clouds
997,Hirara,JP,24.8,125.2833,83.14,77,86,21.63,overcast clouds
998,Caravelas,BR,-17.7125,-39.2481,80.56,49,12,8.93,few clouds
999,Port Alfred,ZA,-33.5906,26.891,62.13,62,0,18.45,clear sky
1000,Talnakh,RU,69.4865,88.3972,49.15,83,100,13.76,light rain
1001,Coffs Harbour,AU,-30.3,153.1333,57.13,94,4,3.44,clear sky
1002,Hermanus,ZA,-34.4187,19.2345,59.81,60,4,10.29,clear sky
1003,Castro,BR,-24.7911,-50.0119,78.69,30,0,4.88,clear sky
1004,Cape Town,ZA,-33.9258,18.4232,61.21,65,40,5.99,scattered clouds
1005,Rikitea,PF,-23.1203,-134.9692,68.85,53,76,17.83,broken clouds
1006,Wiarton,CA,44.7407,-81.1332,82.24,56,45,3.13,scattered clouds
1007,Peniche,PT,39.3558,-9.3811,85.48,71,4,10.63,clear sky
1008,Rikitea,PF,-23.1203,-134.9692,68.85,53,76,17.83,broken clouds
1009,Bredasdorp,ZA,-34.5322,20.0403,61.92,48,56,11.5,broken clouds
1010,Arraial Do Cabo,BR,-22.9661,-42.0278,82.36,61,0,10.36,clear sky
1011,Jacksonville,US,30.3322,-81.6556,91.62,67,75,1.99,haze
1012,Preobrazheniye,RU,42.9019,133.9064,68.27,98,100,13.69,moderate rain
1013,Lokosovo,RU,61.1333,74.8167,68.95,81,39,5.64,scattered clouds
1014,Tuktoyaktuk,CA,69.4541,-133.0374,45.28,81,100,5.32,overcast clouds
1015,Cidreira,BR,-30.1811,-50.2056,63.64,84,17,9.62,few clouds
1016,Camargo,MX,27.6667,-105.1667,72.23,73,99,4.38,overcast clouds
1017,Albany,US,42.6001,-73.9662,82.15,81,94,5.14,overcast clouds
1018,Atuona,PF,-9.8,-139.0333,76.86,73,23,18.12,few clouds
1019,Mountain Home,US,43.133,-115.6912,61.21,42,100,1.1,overcast clouds
1020,Te Anau,NZ,-45.4167,167.7167,41.5,94,100,6.06,overcast clouds
1021,Ushuaia,AR,-54.8,-68.3,35.22,80,0,5.75,clear sky
1022,Pisco,PE,-13.7,-76.2167,62.02,84,68,2.93,broken clouds
1023,Gizo,SB,-8.103,156.8419,80.74,77,78,6.6,broken clouds
1024,Luanda,AO,-8.8368,13.2343,74.73,76,6,13.31,clear sky
1025,Yellowknife,CA,62.456,-114.3525,46.92,81,20,6.91,few clouds
1026,Pilot Butte,CA,50.4668,-104.4178,56.79,85,1,11.92,clear sky
1027,Moerai,PF,-22.4333,-151.3333,71.82,69,100,18.5,overcast clouds
1028,Port Alfred,ZA,-33.5906,26.891,62.13,62,0,18.45,clear sky
1029,Artyom,AZ,40.4723,50.333,87.94,54,57,9.22,broken clouds
1030,Acari,PE,-15.4311,-74.6158,68.54,59,51,6.76,broken clouds
1031,Ushuaia,AR,-54.8,-68.3,35.22,80,0,5.75,clear sky
1032,Lorengau,PG,-2.0226,147.2712,78.71,88,100,15.41,heavy intensity rain
1033,Ushuaia,AR,-54.8,-68.3,35.22,80,0,5.75,clear sky
1034,Caravelas,BR,-17.7125,-39.2481,80.56,49,12,8.93,few clouds
1035,Tumpat,MY,6.1978,102.171,79.5,81,35,1.39,scattered clouds
1036,Atuona,PF,-9.8,-139.0333,76.86,73,23,18.12,few clouds
1037,Unai,BR,-16.3575,-46.9061,83.84,31,31,6.87,scattered clouds
1038,Port Alfred,ZA,-33.5906,26.891,62.13,62,0,18.45,clear sky
1039,Cape Town,ZA,-33.9258,18.4232,61.21,65,40,5.99,scattered clouds
1040,Punta Arenas,CL,-53.15,-70.9167,33.91,69,75,6.91,broken clouds
1041,Puertollano,ES,38.6871,-4.1073,96.19,11,1,8.5,clear sky
1042,Punta Arenas,CL,-53.15,-70.9167,33.91,69,75,6.91,broken clouds
1043,Mataura,NZ,-46.1927,168.8643,41.49,87,29,3.78,light rain
1044,Puerto Ayora,EC,-0.7393,-90.3518,71.56,96,95,5.01,light rain
1045,Ushuaia,AR,-54.8,-68.3,35.22,80,0,5.75,clear sky
1046,Asau,RO,46.4333,26.4,79.39,47,100,3.31,overcast clouds
1047,Port Alfred,ZA,-33.5906,26.891,62.13,62,0,18.45,clear sky
1048,Butaritari,KI,3.0707,172.7902,79.79,70,100,18.19,overcast clouds
1049,Ancud,CL,-41.8697,-73.8203,44.42,93,100,13.91,light rain
1050,Malanje,AO,-9.5402,16.341,88.65,21,41,7.49,scattered clouds
1051,Balkanabat,TM,39.5108,54.3671,97.3,12,4,7.0,clear sky
1052,Rikitea,PF,-23.1203,-134.9692,68.85,53,76,17.83,broken clouds
1053,Xiongzhou,CN,25.1167,114.3,79.27,84,84,2.46,broken clouds
1054,Alyangula,AU,-13.8483,136.4192,72.7,77,3,5.3,clear sky
1055,Kumluca,TR,36.3703,30.2869,90.07,47,1,8.55,clear sky
1056,Puerto Ayora,EC,-0.7393,-90.3518,71.56,96,95,5.01,light rain
1057,East London,ZA,-33.0153,27.9116,63.54,63,0,21.85,clear sky
1058,Pevek,RU,69.7008,170.3133,41.2,96,100,4.83,moderate rain
1059,Hobart,AU,-42.8794,147.3294,53.46,74,75,1.01,broken clouds
1060,Bluff,NZ,-46.6,168.3333,41.81,78,66,16.33,broken clouds
1061,Kysyl-Syr,RU,63.8986,122.7617,57.36,99,100,5.59,light rain
1062,Coahuayana,MX,18.7333,-103.6833,83.68,84,91,1.43,overcast clouds
1063,Mayumba,GA,-3.432,10.6554,75.65,75,31,9.55,scattered clouds
1064,Yumen,CN,40.2833,97.2,76.5,17,100,13.29,overcast clouds
1065,Cayenne,GF,4.9333,-52.3333,87.84,76,40,4.0,scattered clouds
1066,East London,ZA,-33.0153,27.9116,63.54,63,0,21.85,clear sky
1067,Upernavik,GL,72.7868,-56.1549,40.95,86,89,10.94,overcast clouds
1068,Rikitea,PF,-23.1203,-134.9692,68.85,53,76,17.83,broken clouds
1069,Pochutla,MX,15.7432,-96.4661,77.83,82,100,1.59,overcast clouds
1070,Mataura,NZ,-46.1927,168.8643,41.49,87,29,3.78,light rain
1071,Ushuaia,AR,-54.8,-68.3,35.22,80,0,5.75,clear sky
1072,Tuatapere,NZ,-46.1333,167.6833,41.83,86,100,7.78,overcast clouds
1073,Bridlington,GB,54.0831,-0.1919,69.98,85,100,9.46,overcast clouds
1074,Provideniya,RU,64.3833,-173.3,46.63,98,100,5.06,overcast clouds
1075,Katsuura,JP,35.1333,140.3,80.71,88,100,14.45,light rain
1076,Souris,CA,49.6172,-100.2612,58.73,84,90,16.11,overcast clouds
1077,Pevek,RU,69.7008,170.3133,41.2,96,100,4.83,moderate rain
1078,Albany,US,42.6001,-73.9662,82.15,81,94,5.14,overcast clouds
1079,Jamestown,US,42.097,-79.2353,80.29,83,43,2.37,scattered clouds
1080,Ilulissat,GL,69.2167,-51.1,45.99,62,82,3.36,broken clouds
1081,Qeshm,IR,26.9581,56.2719,98.47,59,4,12.3,clear sky
1082,Yellowknife,CA,62.456,-114.3525,46.92,81,20,6.91,few clouds
1083,Sistranda,NO,63.7256,8.834,55.9,65,44,8.81,scattered clouds
1084,Nisia Floresta,BR,-6.0911,-35.2086,85.01,48,2,15.23,clear sky
1085,Vaini,TO,-21.2,-175.2,69.96,100,75,5.75,light rain
1086,Jamestown,US,42.097,-79.2353,80.29,83,43,2.37,scattered clouds
1087,Carnarvon,AU,-24.8667,113.6333,64.83,70,0,23.47,clear sky
1088,Ulladulla,AU,-35.35,150.4667,52.88,77,0,4.27,clear sky
1089,Hermanus,ZA,-34.4187,19.2345,59.81,60,4,10.29,clear sky
1090,Kavieng,PG,-2.5744,150.7967,81.72,80,100,15.99,overcast clouds
1091,Matara,LK,5.9485,80.5353,79.14,85,100,7.09,overcast clouds
1092,Punta Arenas,CL,-53.15,-70.9167,33.91,69,75,6.91,broken clouds
1093,Dingle,PH,10.9995,122.6711,77.52,87,100,1.77,light rain
1094,Rikitea,PF,-23.1203,-134.9692,68.85,53,76,17.83,broken clouds
1095,Tulum,MX,20.2167,-87.4667,87.85,74,72,8.7,broken clouds
1096,Port Elizabeth,ZA,-33.918,25.5701,62.89,63,0,18.41,clear sky
1097,College,US,64.8569,-147.8028,49.59,96,90,1.99,light rain
1098,Albany,US,42.6001,-73.9662,82.15,81,94,5.14,overcast clouds
1099,Busselton,AU,-33.65,115.3333,53.1,73,80,16.49,broken clouds
1100,Sobolevo,RU,54.4299,31.8996,66.51,71,84,9.35,light rain
1101,Koungou,YT,-12.7336,45.2042,78.51,78,2,3.44,clear sky
1102,Richards Bay,ZA,-28.783,32.0377,71.04,76,16,13.06,few clouds
1103,Padang,ID,-0.9492,100.3543,78.85,85,100,1.41,overcast clouds
1104,Namibe,AO,-15.1961,12.1522,67.64,63,2,10.4,clear sky
1105,Geraldton,AU,-28.7667,114.6,55.81,94,75,5.75,drizzle
1106,Mar Del Plata,AR,-38.0023,-57.5575,48.22,81,75,11.5,light rain
1107,Port Hardy,CA,50.6996,-127.4199,53.78,94,90,4.61,overcast clouds
1108,Cape Town,ZA,-33.9258,18.4232,61.21,65,40,5.99,scattered clouds
1109,Lakatoro,VU,-16.0999,167.4164,74.88,81,33,10.67,scattered clouds
1110,Gbarnga,LR,6.9956,-9.4722,80.78,85,42,3.15,moderate rain
1111,Yellowknife,CA,62.456,-114.3525,46.92,81,20,6.91,few clouds
1112,Bredasdorp,ZA,-34.5322,20.0403,61.92,48,56,11.5,broken clouds
1113,Lebu,CL,-37.6167,-73.65,51.31,92,100,32.79,overcast clouds
1114,Axim,GH,4.8699,-2.2405,80.02,73,84,10.38,light rain
1115,Paamiut,GL,61.994,-49.6678,50.94,62,98,5.1,overcast clouds
1116,Dalvik,IS,65.9702,-18.5286,57.9,75,98,4.76,overcast clouds
1117,Bandarbeyla,SO,9.4942,50.8122,78.04,82,11,32.46,few clouds
1118,Lewistown,US,40.5992,-77.5714,84.58,72,2,1.99,clear sky
1119,Okhotsk,RU,59.3833,143.3,57.06,96,98,3.71,overcast clouds
1120,Beloha,MG,-25.1667,45.05,68.45,72,54,12.93,broken clouds
1121,Rikitea,PF,-23.1203,-134.9692,68.85,53,76,17.83,broken clouds
1122,Hilo,US,19.7297,-155.09,72.63,92,17,1.01,few clouds
1123,Matadi,CD,-5.8167,13.45,93.09,33,16,5.93,few clouds
1124,Khatanga,RU,71.9667,102.5,44.24,85,100,5.99,overcast clouds
1125,Longyearbyen,SJ,78.2186,15.6401,40.84,75,75,5.75,broken clouds
1126,Bulawayo,ZW,-20.15,28.5833,81.1,17,5,3.85,clear sky
1127,Port Alfred,ZA,-33.5906,26.891,62.13,62,0,18.45,clear sky
1128,Mataura,NZ,-46.1927,168.8643,41.49,87,29,3.78,light rain
1129,Fundao,BR,-19.9341,-40.4047,85.46,36,5,6.02,clear sky
1130,Villa Union,MX,23.2,-106.2333,84.16,89,75,0.0,broken clouds
1131,Puerto Ayora,EC,-0.7393,-90.3518,71.56,96,95,5.01,light rain
1132,Shelburne,CA,44.0787,-80.2041,81.73,54,23,6.42,few clouds
1133,Tiksi,RU,71.6872,128.8694,40.87,96,100,8.21,overcast clouds
1134,Lokosovo,RU,61.1333,74.8167,68.95,81,39,5.64,scattered clouds
1135,Ntungamo,UG,-0.8833,29.65,75.47,63,88,1.34,light rain
1136,Albany,US,42.6001,-73.9662,82.15,81,94,5.14,overcast clouds
1137,Chokurdakh,RU,70.6333,147.9167,45.73,86,86,13.94,overcast clouds
1138,Hamilton,US,39.1834,-84.5333,84.99,65,17,1.99,few clouds
1139,Tezu,IN,27.9167,96.1667,76.39,98,98,2.48,overcast clouds
1140,Havre-Saint-Pierre,CA,50.2334,-63.5986,62.94,50,65,7.09,broken clouds
1141,Vaini,TO,-21.2,-175.2,69.96,100,75,5.75,light rain
1142,Jamestown,US,42.097,-79.2353,80.29,83,43,2.37,scattered clouds
1143,Ushuaia,AR,-54.8,-68.3,35.22,80,0,5.75,clear sky
1144,Namatanai,PG,-3.6667,152.4333,79.09,84,100,10.42,light rain
1145,Rikitea,PF,-23.1203,-134.9692,68.85,53,76,17.83,broken clouds
1146,Caravelas,BR,-17.7125,-39.2481,80.56,49,12,8.93,few clouds
1147,Lagoa,PT,39.05,-27.9833,73.08,76,0,10.36,clear sky
1148,Longyearbyen,SJ,78.2186,15.6401,40.84,75,75,5.75,broken clouds
1149,Luangwa,ZM,-15.6167,30.4167,88.43,23,1,8.84,clear sky
1150,Touros,BR,-5.1989,-35.4608,85.1,57,3,18.19,clear sky
1151,Port Elizabeth,ZA,-33.918,25.5701,62.89,63,0,18.41,clear sky
1152,Hermanus,ZA,-34.4187,19.2345,59.81,60,4,10.29,clear sky
1153,Bonavista,CA,48.6499,-53.1147,62.11,75,93,11.5,overcast clouds
1154,Rikitea,PF,-23.1203,-134.9692,68.85,53,76,17.83,broken clouds
1155,Yuanping,CN,38.7153,112.7575,66.96,88,97,1.88,overcast clouds
1156,Mataura,NZ,-46.1927,168.8643,41.49,87,29,3.78,light rain
1157,Qaanaaq,GL,77.484,-69.3632,38.44,82,100,4.29,overcast clouds
1158,Ushuaia,AR,-54.8,-68.3,35.22,80,0,5.75,clear sky
1159,Rikitea,PF,-23.1203,-134.9692,68.85,53,76,17.83,broken clouds
1160,Hilo,US,19.7297,-155.09,72.63,92,17,1.01,few clouds
1161,Pindwara,IN,24.8,73.0667,80.51,67,72,4.5,broken clouds
1162,Barrow,US,71.2906,-156.7887,42.82,87,90,19.57,fog
1163,Castro,BR,-24.7911,-50.0119,78.69,30,0,4.88,clear sky
1164,Ushuaia,AR,-54.8,-68.3,35.22,80,0,5.75,clear sky
1165,Bengkulu,ID,-3.8004,102.2655,75.52,91,100,6.8,overcast clouds
1166,Torbay,CA,47.6666,-52.7314,64.27,76,91,1.99,overcast clouds
1167,Hobart,AU,-42.8794,147.3294,53.46,74,75,1.01,broken clouds
1168,Lebu,CL,-37.6167,-73.65,51.31,92,100,32.79,overcast clouds
1169,Hobart,AU,-42.8794,147.3294,53.46,74,75,1.01,broken clouds
1170,Ushuaia,AR,-54.8,-68.3,35.22,80,0,5.75,clear sky
1171,Barrow,US,71.2906,-156.7887,42.82,87,90,19.57,fog
1172,Rikitea,PF,-23.1203,-134.9692,68.85,53,76,17.83,broken clouds
1173,Busselton,AU,-33.65,115.3333,53.1,73,80,16.49,broken clouds
1174,Upata,VE,8.0086,-62.3989,83.19,65,42,5.26,scattered clouds
1175,Funadhoo,MV,6.15,73.2667,82.33,76,98,12.26,overcast clouds
1176,Tasiilaq,GL,65.6145,-37.6368,50.16,94,100,7.23,overcast clouds
1177,Bellevue,US,47.6104,-122.2007,59.81,87,90,1.01,overcast clouds
1178,Mataura,NZ,-46.1927,168.8643,41.49,87,29,3.78,light rain
1179,Jamestown,US,42.097,-79.2353,80.29,83,43,2.37,scattered clouds
1180,Khatanga,RU,71.9667,102.5,44.24,85,100,5.99,overcast clouds
1181,Ushuaia,AR,-54.8,-68.3,35.22,80,0,5.75,clear sky
1182,Mataura,NZ,-46.1927,168.8643,41.49,87,29,3.78,light rain
1183,Mataura,NZ,-46.1927,168.8643,41.49,87,29,3.78,light rain
1184,Turukhansk,RU,65.8167,87.9833,53.11,66,100,7.54,overcast clouds
1185,Punta Arenas,CL,-53.15,-70.9167,33.91,69,75,6.91,broken clouds
1186,Kapaa,US,22.0752,-159.319,75.52,81,90,9.22,light rain
1187,Madimba,TZ,-10.4,40.3333,79.07,73,0,10.58,clear sky
1188,Fort Nelson,CA,58.8053,-122.7002,49.78,80,94,5.93,overcast clouds
1189,Ribeira Grande,PT,38.5167,-28.7,77.4,73,20,9.22,few clouds
1190,Bacolod,PH,10.6667,122.95,78.67,84,83,5.1,light rain
1191,Hwange,ZW,-18.3693,26.5019,86.16,18,0,7.74,clear sky
1192,Najran,SA,17.4924,44.1277,92.19,18,100,18.86,overcast clouds
1193,Avarua,CK,-21.2078,-159.775,69.85,94,100,3.44,overcast clouds
1194,Upernavik,GL,72.7868,-56.1549,40.95,86,89,10.94,overcast clouds
1195,Khandyga,RU,62.6667,135.6,61.45,97,61,4.0,light rain
1196,Orbetello,IT,42.4408,11.2196,91.62,58,0,12.33,clear sky
1197,Hailar,CN,49.2,119.7,57.58,64,1,5.73,clear sky
1198,Sao Filipe,CV,14.8961,-24.4956,81.27,77,75,5.44,broken clouds
1199,Los Alamos,US,35.8881,-106.307,71.56,40,1,1.01,clear sky
1200,Roccastrada,IT,43.0099,11.1665,86.59,31,12,10.42,few clouds
1201,Juye,CN,35.3947,116.0883,75.49,86,100,5.17,light rain
1202,Chengdu,CN,30.6667,104.0667,77.94,91,100,5.21,overcast clouds
1203,Najran,SA,17.4924,44.1277,92.19,18,100,18.86,overcast clouds
1204,Svalyava,UA,48.5485,22.9958,75.47,48,19,6.44,few clouds
1205,Hilo,US,19.7297,-155.09,72.63,92,17,1.01,few clouds
1206,Nurota,UZ,40.5614,65.6886,86.09,18,0,5.91,clear sky
1207,East London,ZA,-33.0153,27.9116,63.54,63,0,21.85,clear sky
1208,Vaini,TO,-21.2,-175.2,69.96,100,75,5.75,light rain
1209,Povenets,RU,62.8487,34.8262,63.54,60,87,6.22,overcast clouds
1210,Arraial Do Cabo,BR,-22.9661,-42.0278,82.36,61,0,10.36,clear sky
1211,Adrar,MR,20.5022,-10.0711,106.92,15,61,8.37,broken clouds
1212,Pokhvistnevo,RU,53.6524,52.1274,92.1,17,91,7.0,overcast clouds
1213,Malanje,AO,-9.5402,16.341,88.65,21,41,7.49,scattered clouds
1214,Chapais,CA,49.7834,-74.8492,82.36,51,6,5.55,clear sky
1215,Narsaq,GL,60.9167,-46.05,57.42,52,91,13.65,overcast clouds
1216,Punta Arenas,CL,-53.15,-70.9167,33.91,69,75,6.91,broken clouds
1217,Vaini,TO,-21.2,-175.2,69.96,100,75,5.75,light rain
1218,Hermanus,ZA,-34.4187,19.2345,59.81,60,4,10.29,clear sky
1219,Castro,BR,-24.7911,-50.0119,78.69,30,0,4.88,clear sky
1220,Jamestown,US,42.097,-79.2353,80.29,83,43,2.37,scattered clouds
1221,Rikitea,PF,-23.1203,-134.9692,68.85,53,76,17.83,broken clouds
1222,Khatanga,RU,71.9667,102.5,44.24,85,100,5.99,overcast clouds
1223,Waipawa,NZ,-41.4122,175.5153,39.83,85,13,6.98,few clouds
1224,Kavieng,PG,-2.5744,150.7967,81.72,80,100,15.99,overcast clouds
1225,Nikolskoye,RU,59.7035,30.7861,63.01,77,75,5.23,broken clouds
1226,Dikson,RU,73.5069,80.5464,42.82,95,100,20.42,overcast clouds
1227,Dikson,RU,73.5069,80.5464,42.82,95,100,20.42,overcast clouds
1228,Puerto Ayora,EC,-0.7393,-90.3518,71.56,96,95,5.01,light rain
1229,Punta Arenas,CL,-53.15,-70.9167,33.91,69,75,6.91,broken clouds
1230,Cabo San Lucas,MX,22.8909,-109.9124,87.51,74,2,10.0,clear sky
1231,Cabo San Lucas,MX,22.8909,-109.9124,87.51,74,2,10.0,clear sky
1232,Mataura,NZ,-46.1927,168.8643,41.49,87,29,3.78,light rain
1233,Terekli-Mekteb,RU,44.1671,45.8698,90.72,36,34,9.57,scattered clouds
1234,Avarua,CK,-21.2078,-159.775,69.85,94,100,3.44,overcast clouds
1235,Puerto Ayora,EC,-0.7393,-90.3518,71.56,96,95,5.01,light rain
1236,Vaini,TO,-21.2,-175.2,69.96,100,75,5.75,light rain
1237,Esperance,AU,-33.8667,121.9,55.24,80,5,22.53,clear sky
1238,Ryotsu,JP,38.0833,138.4333,77.61,84,100,4.56,light rain
1239,Kapaa,US,22.0752,-159.319,75.52,81,90,9.22,light rain
1240,Kapaa,US,22.0752,-159.319,75.52,81,90,9.22,light rain
1241,San Patricio,US,28.017,-97.5169,89.69,57,14,11.68,few clouds
1242,Atuona,PF,-9.8,-139.0333,76.86,73,23,18.12,few clouds
1243,Cabo San Lucas,MX,22.8909,-109.9124,87.51,74,2,10.0,clear sky
1244,Constantine,DZ,36.365,6.6147,95.29,23,0,11.7,clear sky
1245,Punta Arenas,CL,-53.15,-70.9167,33.91,69,75,6.91,broken clouds
1246,Yamada,JP,39.4667,141.95,71.87,99,100,2.37,overcast clouds
1247,Hermanus,ZA,-34.4187,19.2345,59.81,60,4,10.29,clear sky
1248,Tenkodogo,BF,11.78,-0.3697,88.0,56,88,5.17,overcast clouds
1249,Port Alfred,ZA,-33.5906,26.891,62.13,62,0,18.45,clear sky
1250,Bonavista,CA,48.6499,-53.1147,62.11,75,93,11.5,overcast clouds
1251,Punta Arenas,CL,-53.15,-70.9167,33.91,69,75,6.91,broken clouds
1252,Nikolskoye,RU,59.7035,30.7861,63.01,77,75,5.23,broken clouds
1253,Mataura,NZ,-46.1927,168.8643,41.49,87,29,3.78,light rain
1254,Lebu,CL,-37.6167,-73.65,51.31,92,100,32.79,overcast clouds
1255,Rikitea,PF,-23.1203,-134.9692,68.85,53,76,17.83,broken clouds
1256,Saint-Pierre,RE,-21.3393,55.4781,73.04,73,0,3.44,clear sky
1257,Jamestown,US,42.097,-79.2353,80.29,83,43,2.37,scattered clouds
1258,Mataura,NZ,-46.1927,168.8643,41.49,87,29,3.78,light rain
1259,Avarua,CK,-21.2078,-159.775,69.85,94,100,3.44,overcast clouds
1260,Xining,CN,36.6167,101.7667,55.26,91,100,1.12,overcast clouds
1261,Filadelfia,US,39.9523,-75.1638,82.71,79,75,3.0,broken clouds
1262,Baykit,RU,61.67,96.37,52.95,68,90,3.8,overcast clouds
1263,Santiago Del Estero,AR,-27.7951,-64.2615,64.8,43,0,3.85,clear sky
1264,Victoria,HK,22.2855,114.1577,86.32,80,100,1.99,overcast clouds
1265,Esperance,AU,-33.8667,121.9,55.24,80,5,22.53,clear sky
1266,Ishigaki,JP,24.3448,124.1572,82.69,75,23,6.67,few clouds
1267,Hobart,AU,-42.8794,147.3294,53.46,74,75,1.01,broken clouds
1268,Bogale,MM,16.2833,95.4,80.89,84,78,6.24,broken clouds
1269,Dikson,RU,73.5069,80.5464,42.82,95,100,20.42,overcast clouds
1270,Sobolevo,RU,54.4299,31.8996,66.51,71,84,9.35,light rain
1271,Hithadhoo,MV,-0.6,73.0833,83.37,71,1,12.82,clear sky
1272,Rikitea,PF,-23.1203,-134.9692,68.85,53,76,17.83,broken clouds
1273,Konevo,RU,62.1215,39.3192,66.96,58,51,1.14,broken clouds
1274,Vaini,TO,-21.2,-175.2,69.96,100,75,5.75,light rain
1275,Hilo,US,19.7297,-155.09,72.63,92,17,1.01,few clouds
1276,Barinitas,VE,8.7622,-70.4111,81.01,69,18,3.53,few clouds
1277,Dikson,RU,73.5069,80.5464,42.82,95,100,20.42,overcast clouds
1278,Erenhot,CN,43.6475,111.9767,70.72,46,66,22.37,broken clouds
1279,Busselton,AU,-33.65,115.3333,53.1,73,80,16.49,broken clouds
1280,Mataura,NZ,-46.1927,168.8643,41.49,87,29,3.78,light rain
1281,Faya,SA,18.3851,42.4509,73.92,38,94,0.31,overcast clouds
1282,Prachuap Khiri Khan,TH,12.2167,99.75,75.29,87,75,2.46,broken clouds
1283,Castro,BR,-24.7911,-50.0119,78.69,30,0,4.88,clear sky
1284,Jamestown,US,42.097,-79.2353,80.29,83,43,2.37,scattered clouds
1285,Ushuaia,AR,-54.8,-68.3,35.22,80,0,5.75,clear sky
1286,New Norfolk,AU,-42.7826,147.0587,53.1,76,100,1.99,overcast clouds
1287,Kodiak,US,57.79,-152.4072,48.92,70,100,3.38,overcast clouds
1288,Barrow,US,71.2906,-156.7887,42.82,87,90,19.57,fog
1289,Arraial Do Cabo,BR,-22.9661,-42.0278,82.36,61,0,10.36,clear sky
1290,Khatanga,RU,71.9667,102.5,44.24,85,100,5.99,overcast clouds
1291,Lingig,PH,8.0389,126.4125,77.56,87,100,1.68,overcast clouds
1292,Phayao,TH,19.25,100.25,73.26,95,79,2.82,broken clouds
1293,Albany,US,42.6001,-73.9662,82.15,81,94,5.14,overcast clouds
1294,Ushuaia,AR,-54.8,-68.3,35.22,80,0,5.75,clear sky
1295,Qaanaaq,GL,77.484,-69.3632,38.44,82,100,4.29,overcast clouds
1296,New Norfolk,AU,-42.7826,147.0587,53.1,76,100,1.99,overcast clouds
1297,Mataura,NZ,-46.1927,168.8643,41.49,87,29,3.78,light rain
1298,Anloga,GH,5.7947,0.8973,75.24,89,100,12.46,light rain
1299,Puerto Penasco,MX,31.3167,-113.5333,84.9,68,0,10.0,clear sky
1300,Concarneau,FR,47.875,-3.9225,70.05,69,18,13.44,few clouds
1301,Deputatskiy,RU,69.3,139.9,57.43,65,100,4.18,overcast clouds
1302,Grand-Santi,GF,4.25,-54.3833,91.17,49,47,3.78,scattered clouds
1303,Ilheus,BR,-14.7889,-39.0494,79.03,56,7,8.01,clear sky
1304,Barrow,US,71.2906,-156.7887,42.82,87,90,19.57,fog
1305,Hobart,AU,-42.8794,147.3294,53.46,74,75,1.01,broken clouds
1306,Albany,US,42.6001,-73.9662,82.15,81,94,5.14,overcast clouds
1307,Puerto Ayora,EC,-0.7393,-90.3518,71.56,96,95,5.01,light rain
1308,Atuona,PF,-9.8,-139.0333,76.86,73,23,18.12,few clouds
1309,Khatanga,RU,71.9667,102.5,44.24,85,100,5.99,overcast clouds
1310,Kyabe,TD,9.4515,18.9449,78.13,88,89,3.76,moderate rain
1311,Kichera,RU,55.9375,110.0997,57.18,75,79,6.89,broken clouds
